{"5c1801c4-e09b-e411-81e4-00155d110c01":{"beautified address":"Московская обл, г Химки, мкр Сходня, ул Железнодорожная, д 33","postal index":141421,"region":"Московская","city":"Химки","district":"","latitude":"55.947313","longitude":"37.315801","metro":[]},"aa1801c4-e09b-e411-81e4-00155d110c01":{"beautified address":"Московская обл, г Реутов, ул имени Головашкина, к 1, кв 2","postal index":143968,"region":"Московская","city":"Реутов","district":"","latitude":"55.7708386","longitude":"37.8534651","metro":[]},"bc1801c4-e09b-e411-81e4-00155d110c01":{"beautified address":"Московская обл, г Мытищи","postal index":141000,"region":"Московская","city":"Мытищи","district":"","latitude":"55.9105782","longitude":"37.7363579","metro":[]},"c01801c4-e09b-e411-81e4-00155d110c01":{"beautified address":"Московская обл, г Мытищи","postal index":141000,"region":"Московская","city":"Мытищи","district":"","latitude":"55.9105782","longitude":"37.7363579","metro":[]},"c21801c4-e09b-e411-81e4-00155d110c01":{"beautified address":"Московская обл, г Мытищи","postal index":141000,"region":"Московская","city":"Мытищи","district":"","latitude":"55.9105782","longitude":"37.7363579","metro":[]},"d21801c4-e09b-e411-81e4-00155d110c01":{"beautified address":"Московская обл, г Пушкино, мкр Новая Деревня, к 6","postal index":141202,"region":"Московская","city":"","district":"","latitude":"56.018621","longitude":"37.8659058","metro":[]},"dbc3dc03-a7d3-e411-80bd-00155d110c02":{"beautified address":"г Москва, ул Серпуховский Вал, влд 19","postal index":0,"region":"Москва","city":"","district":"р-н Даниловский","latitude":"55.7108972","longitude":"37.6077169","metro":[{"distance":0.90000000000000002,"line":"Калужско-Рижская","name":"Шаболовская"},{"distance":0.90000000000000002,"line":"Серпуховско-Тимирязевская","name":"Тульская"},{"distance":1.3999999999999999,"line":"МЦК","name":"Площадь Гагарина"}]},"b8b39f4f-f4dd-e411-80be-00155d110c02":{"beautified address":"Московская обл, г Жуковский, ул Гагарина","postal index":0,"region":"Московская","city":"Жуковский","district":"","latitude":"55.607845","longitude":"38.09394","metro":[]},"7882601c-bee1-e411-80be-00155d110c02":{"beautified address":"Московская обл, г Пушкино, мкр Новая Деревня, к 8","postal index":141202,"region":"Московская","city":"","district":"","latitude":"56.018621","longitude":"37.8659058","metro":[]},"26665795-43e4-e411-80be-00155d110c02":{"beautified address":"Московская обл, г Долгопрудный, ул Московская, д 52","postal index":141703,"region":"Московская","city":"Долгопрудный","district":"","latitude":"55.9563584","longitude":"37.5209125","metro":[]},"c3cb5aea-71fd-e411-80bf-00155d110c02":{"beautified address":"г Москва, ул Серпуховский Вал, влд 19","postal index":0,"region":"Москва","city":"","district":"р-н Даниловский","latitude":"55.7108972","longitude":"37.6077169","metro":[{"distance":0.90000000000000002,"line":"Калужско-Рижская","name":"Шаболовская"},{"distance":0.90000000000000002,"line":"Серпуховско-Тимирязевская","name":"Тульская"},{"distance":1.3999999999999999,"line":"МЦК","name":"Площадь Гагарина"}]},"bfb3b7ca-9e03-e511-80bf-00155d110c02":{"beautified address":"Московская обл, г Мытищи","postal index":141000,"region":"Московская","city":"Мытищи","district":"","latitude":"55.9105782","longitude":"37.7363579","metro":[]},"e22dceb9-600b-e511-80bf-00155d110c02":{"beautified address":"Московская обл, г Красногорск, тер ЭЖК Эдем (д Гаврилково), кв-л 10, д 2 к 5","postal index":143441,"region":"Московская","city":"Красногорск","district":"","latitude":"55.880071","longitude":"37.364436","metro":[]},"e077e487-e623-e511-80c1-00155d110c02":{"beautified address":"г Москва, ул Большая Очаковская, влд 44","postal index":119361,"region":"Москва","city":"","district":"р-н Очаково-Матвеевское","latitude":"55.675798","longitude":"37.443982","metro":[{"distance":0.80000000000000004,"line":"Солнцевская","name":"Озёрная"},{"distance":2.5,"line":"Солнцевская","name":"Говорово"},{"distance":2.7000000000000002,"line":"Большая кольцевая линия","name":"Аминьевская"}]},"0d49515e-ea23-e511-80c1-00155d110c02":{"beautified address":"г Москва, ул Большая Очаковская, влд 44","postal index":119361,"region":"Москва","city":"","district":"р-н Очаково-Матвеевское","latitude":"55.675798","longitude":"37.443982","metro":[{"distance":0.80000000000000004,"line":"Солнцевская","name":"Озёрная"},{"distance":2.5,"line":"Солнцевская","name":"Говорово"},{"distance":2.7000000000000002,"line":"Большая кольцевая линия","name":"Аминьевская"}]},"2ea4819d-a441-e511-80c2-00155d110c02":{"beautified address":"Московская обл, г Пушкино, мкр Новая Деревня, к 9","postal index":141202,"region":"Московская","city":"","district":"","latitude":"56.018621","longitude":"37.8659058","metro":[]},"9980e7f2-a541-e511-80c2-00155d110c02":{"beautified address":"Московская обл, г Пушкино, мкр Новая Деревня, к 10","postal index":141202,"region":"Московская","city":"","district":"","latitude":"56.018621","longitude":"37.8659058","metro":[]},"1aa10cda-a741-e511-80c2-00155d110c02":{"beautified address":"Московская обл, г Пушкино, мкр Новая Деревня, к 11","postal index":141202,"region":"Московская","city":"","district":"","latitude":"56.018621","longitude":"37.8659058","metro":[]},"0cffd241-f97b-e511-80c6-00155d110c02":{"beautified address":"Московская обл, г Мытищи","postal index":141000,"region":"Московская","city":"Мытищи","district":"","latitude":"55.9105782","longitude":"37.7363579","metro":[]},"2c35aee5-e77e-e511-80c6-00155d110c02":{"beautified address":"Московская обл, г Химки, мкр Сходня, ул Железнодорожная, д 2","postal index":141421,"region":"Московская","city":"Химки","district":"","latitude":"55.947485","longitude":"37.310681","metro":[]},"87c25b7a-60c6-e511-80d4-00155d110c02":{"beautified address":"Московская обл, г Мытищи","postal index":141000,"region":"Московская","city":"Мытищи","district":"","latitude":"55.9105782","longitude":"37.7363579","metro":[]},"1b321704-fec7-e511-80d4-00155d110c02":{"beautified address":"Московская обл, г Мытищи","postal index":141000,"region":"Московская","city":"Мытищи","district":"","latitude":"55.9105782","longitude":"37.7363579","metro":[]},"7cc50d0c-ffc7-e511-80d4-00155d110c02":{"beautified address":"Московская обл, г Мытищи","postal index":141000,"region":"Московская","city":"Мытищи","district":"","latitude":"55.9105782","longitude":"37.7363579","metro":[]},"240370b1-f7d3-e511-80d4-00155d110c02":{"beautified address":"Московская обл, г Одинцово, ул Триумфальная, д 5","postal index":143002,"region":"Московская","city":"","district":"","latitude":"55.658916","longitude":"37.235016","metro":[{"distance":3.3999999999999999,"line":"Белорусско-Савеловский","name":"Одинцово"}]},"03c8b6a0-f8d3-e511-80d4-00155d110c02":{"beautified address":"Московская обл, г Одинцово, ул Триумфальная, д 4","postal index":143002,"region":"Московская","city":"","district":"","latitude":"55.6568813","longitude":"37.2308194","metro":[{"distance":3.7000000000000002,"line":"Белорусско-Савеловский","name":"Одинцово"}]},"e45198ed-03f0-e511-80d9-00155d110c02":{"beautified address":"Московская обл, г Балашиха, ул Лукино, к 4","postal index":143909,"region":"Московская","city":"Балашиха","district":"","latitude":"55.83298","longitude":"37.929387","metro":[]},"96278107-e809-e611-80de-00155d110c02":{"beautified address":"Московская обл, г Одинцово, ул Гвардейская, д 7","postal index":143002,"region":"Московская","city":"","district":"","latitude":"55.6550561","longitude":"37.2337485","metro":[{"distance":3.6000000000000001,"line":"Белорусско-Савеловский","name":"Одинцово"}]},"dc128fc5-d20b-e611-80de-00155d110c02":{"beautified address":"г Москва, ул Петра Алексеева, влд 12А к 1","postal index":121471,"region":"Москва","city":"","district":"р-н Можайский","latitude":"55.7169954","longitude":"37.4307381","metro":[{"distance":1.3,"line":"Большая кольцевая линия","name":"Давыдково"},{"distance":1.3999999999999999,"line":"Белорусско-Савеловский","name":"Рабочий поселок"},{"distance":1.6000000000000001,"line":"Белорусско-Савеловский","name":"Кунцево"}]},"ccc98c7e-6e0c-e611-80de-00155d110c02":{"beautified address":"г Москва, ул Петра Алексеева, влд 12А к 2","postal index":121471,"region":"Москва","city":"","district":"р-н Можайский","latitude":"55.7169954","longitude":"37.4307381","metro":[{"distance":1.3,"line":"Большая кольцевая линия","name":"Давыдково"},{"distance":1.3999999999999999,"line":"Белорусско-Савеловский","name":"Рабочий поселок"},{"distance":1.6000000000000001,"line":"Белорусско-Савеловский","name":"Кунцево"}]},"eebb43c3-6f0c-e611-80de-00155d110c02":{"beautified address":"г Москва, ул Петра Алексеева, влд 12А к 3","postal index":121471,"region":"Москва","city":"","district":"р-н Можайский","latitude":"55.7169954","longitude":"37.4307381","metro":[{"distance":1.3,"line":"Большая кольцевая линия","name":"Давыдково"},{"distance":1.3999999999999999,"line":"Белорусско-Савеловский","name":"Рабочий поселок"},{"distance":1.6000000000000001,"line":"Белорусско-Савеловский","name":"Кунцево"}]},"b9ad37b3-710c-e611-80de-00155d110c02":{"beautified address":"г Москва, ул Петра Алексеева, влд 12А к 4","postal index":121471,"region":"Москва","city":"","district":"р-н Можайский","latitude":"55.7169954","longitude":"37.4307381","metro":[{"distance":1.3,"line":"Большая кольцевая линия","name":"Давыдково"},{"distance":1.3999999999999999,"line":"Белорусско-Савеловский","name":"Рабочий поселок"},{"distance":1.6000000000000001,"line":"Белорусско-Савеловский","name":"Кунцево"}]},"1b59dfca-ff1b-e611-80de-00155d110c02":{"beautified address":"г Москва, ул Вавилова, влд 69А","postal index":0,"region":"Москва","city":"","district":"р-н Донской","latitude":"55.681047","longitude":"37.551088","metro":[{"distance":0.80000000000000004,"line":"Калужско-Рижская","name":"Профсоюзная"},{"distance":1.2,"line":"Калужско-Рижская","name":"Новые Черемушки"},{"distance":1.5,"line":"Калужско-Рижская","name":"Академическая"}]},"80cf4250-cd2c-e611-80e0-00155d110c02":{"beautified address":"Московская обл, г Мытищи","postal index":141000,"region":"Московская","city":"Мытищи","district":"","latitude":"55.9105782","longitude":"37.7363579","metro":[]},"417bb623-5859-e611-80e0-00155d110c02":{"beautified address":"Московская обл, г Одинцово, г Кубинка, кв-л Красная Горка, ул Садовая, д 14","postal index":143070,"region":"Московская","city":"Кубинка","district":"","latitude":"55.5882379","longitude":"36.7281563","metro":[]},"a8d587e9-b85f-e611-80e0-00155d110c02":{"beautified address":"г Москва, ул Производственная, влд 6 к 5","postal index":119619,"region":"Москва","city":"","district":"р-н Солнцево","latitude":"55.644658","longitude":"37.391296","metro":[{"distance":0.5,"line":"Солнцевская","name":"Солнцево"},{"distance":1.3999999999999999,"line":"Солнцевская","name":"Боровское шоссе"},{"distance":2.2999999999999998,"line":"Солнцевская","name":"Говорово"}]},"01af064c-bb5f-e611-80e0-00155d110c02":{"beautified address":"г Москва, ул Производственная, влд 6 к 6","postal index":119619,"region":"Москва","city":"","district":"р-н Солнцево","latitude":"55.644658","longitude":"37.391296","metro":[{"distance":0.5,"line":"Солнцевская","name":"Солнцево"},{"distance":1.3999999999999999,"line":"Солнцевская","name":"Боровское шоссе"},{"distance":2.2999999999999998,"line":"Солнцевская","name":"Говорово"}]},"2aef3bca-446f-e611-80e1-00155d110c02":{"beautified address":"Московская обл, г Одинцово, ул Гвардейская, д 9","postal index":143002,"region":"Московская","city":"","district":"","latitude":"55.6552273","longitude":"37.2313078","metro":[{"distance":3.7999999999999998,"line":"Белорусско-Савеловский","name":"Одинцово"}]},"4dbfa3e4-587e-e611-80e2-00155d110c02":{"beautified address":"Московская обл, г Одинцово, ул Триумфальная, д 8","postal index":143002,"region":"Московская","city":"","district":"","latitude":"55.656138","longitude":"37.230102","metro":[{"distance":3.7999999999999998,"line":"Белорусско-Савеловский","name":"Одинцово"}]},"f622d9ad-6a7e-e611-80e2-00155d110c02":{"beautified address":"Московская обл, г Одинцово, ул Акуловская, д 2Ж к 23","postal index":143002,"region":"Московская","city":"","district":"","latitude":"55.659553","longitude":"37.2393021","metro":[{"distance":3.1000000000000001,"line":"Белорусско-Савеловский","name":"Одинцово"}]},"2d816af3-3f7f-e611-80e2-00155d110c02":{"beautified address":"Московская обл, г Мытищи","postal index":141000,"region":"Московская","city":"Мытищи","district":"","latitude":"55.9105782","longitude":"37.7363579","metro":[]},"869a1931-417f-e611-80e2-00155d110c02":{"beautified address":"Московская обл, г Мытищи","postal index":141000,"region":"Московская","city":"Мытищи","district":"","latitude":"55.9105782","longitude":"37.7363579","metro":[]},"a0658c4b-427f-e611-80e2-00155d110c02":{"beautified address":"Московская обл, г Мытищи","postal index":141000,"region":"Московская","city":"Мытищи","district":"","latitude":"55.9105782","longitude":"37.7363579","metro":[]},"a3c1fa8b-f586-e611-80e3-00155d110c02":{"beautified address":"г Москва, ул Михайлова, влд 31","postal index":0,"region":"Москва","city":"","district":"р-н Рязанский","latitude":"55.7258005","longitude":"37.7740343","metro":[{"distance":0.90000000000000002,"line":"Некрасовская","name":"Окская"},{"distance":1.3999999999999999,"line":"Некрасовская","name":"Стахановская"},{"distance":1.6000000000000001,"line":"Таганско-Краснопресненская","name":"Рязанский проспект"}]},"83670974-0ea7-e611-80e4-00155d110c02":{"beautified address":"г Москва, ул Производственная, влд 6 к 1","postal index":119619,"region":"Москва","city":"","district":"р-н Солнцево","latitude":"55.644658","longitude":"37.391296","metro":[{"distance":0.5,"line":"Солнцевская","name":"Солнцево"},{"distance":1.3999999999999999,"line":"Солнцевская","name":"Боровское шоссе"},{"distance":2.2999999999999998,"line":"Солнцевская","name":"Говорово"}]},"ba1d23a7-0fa7-e611-80e4-00155d110c02":{"beautified address":"г Москва, ул Производственная, влд 6 к 2","postal index":119619,"region":"Москва","city":"","district":"р-н Солнцево","latitude":"55.644658","longitude":"37.391296","metro":[{"distance":0.5,"line":"Солнцевская","name":"Солнцево"},{"distance":1.3999999999999999,"line":"Солнцевская","name":"Боровское шоссе"},{"distance":2.2999999999999998,"line":"Солнцевская","name":"Говорово"}]},"c3765941-60c3-e611-80d5-005056ba18b6":{"beautified address":"Московская обл, г Пушкино, мкр Новая Деревня, к 12","postal index":141202,"region":"Московская","city":"","district":"","latitude":"56.018621","longitude":"37.8659058","metro":[]},"c2dcb67d-60c3-e611-80d5-005056ba18b6":{"beautified address":"Московская обл, г Пушкино, мкр Новая Деревня, к 14","postal index":141202,"region":"Московская","city":"","district":"","latitude":"56.018621","longitude":"37.8659058","metro":[]},"d4af17b9-56cb-e611-80d5-005056ba18b6":{"beautified address":"г Москва, ул Михайлова, влд 31","postal index":0,"region":"Москва","city":"","district":"р-н Рязанский","latitude":"55.7258005","longitude":"37.7740343","metro":[{"distance":0.90000000000000002,"line":"Некрасовская","name":"Окская"},{"distance":1.3999999999999999,"line":"Некрасовская","name":"Стахановская"},{"distance":1.6000000000000001,"line":"Таганско-Краснопресненская","name":"Рязанский проспект"}]},"0098d09e-5acb-e611-80d5-005056ba18b6":{"beautified address":"г Москва, ул Михайлова, влд 31","postal index":0,"region":"Москва","city":"","district":"р-н Рязанский","latitude":"55.7258005","longitude":"37.7740343","metro":[{"distance":0.90000000000000002,"line":"Некрасовская","name":"Окская"},{"distance":1.3999999999999999,"line":"Некрасовская","name":"Стахановская"},{"distance":1.6000000000000001,"line":"Таганско-Краснопресненская","name":"Рязанский проспект"}]},"0922bf6d-8002-e711-80da-005056ba18b6":{"beautified address":"г Москва, ул Петра Алексеева, влд 12А к 3","postal index":121471,"region":"Москва","city":"","district":"р-н Можайский","latitude":"55.7169954","longitude":"37.4307381","metro":[{"distance":1.3,"line":"Большая кольцевая линия","name":"Давыдково"},{"distance":1.3999999999999999,"line":"Белорусско-Савеловский","name":"Рабочий поселок"},{"distance":1.6000000000000001,"line":"Белорусско-Савеловский","name":"Кунцево"}]},"e4a816be-8602-e711-80da-005056ba18b6":{"beautified address":"г Москва, ул Петра Алексеева, влд 12А к 3","postal index":121471,"region":"Москва","city":"","district":"р-н Можайский","latitude":"55.7169954","longitude":"37.4307381","metro":[{"distance":1.3,"line":"Большая кольцевая линия","name":"Давыдково"},{"distance":1.3999999999999999,"line":"Белорусско-Савеловский","name":"Рабочий поселок"},{"distance":1.6000000000000001,"line":"Белорусско-Савеловский","name":"Кунцево"}]},"a0556059-0d0b-e711-80da-005056ba18b6":{"beautified address":"г Москва, ул Производственная, влд 6 к 5","postal index":119619,"region":"Москва","city":"","district":"р-н Солнцево","latitude":"55.644658","longitude":"37.391296","metro":[{"distance":0.5,"line":"Солнцевская","name":"Солнцево"},{"distance":1.3999999999999999,"line":"Солнцевская","name":"Боровское шоссе"},{"distance":2.2999999999999998,"line":"Солнцевская","name":"Говорово"}]},"05332501-190b-e711-80da-005056ba18b6":{"beautified address":"г Москва, ул Производственная, влд 6 к 6","postal index":119619,"region":"Москва","city":"","district":"р-н Солнцево","latitude":"55.644658","longitude":"37.391296","metro":[{"distance":0.5,"line":"Солнцевская","name":"Солнцево"},{"distance":1.3999999999999999,"line":"Солнцевская","name":"Боровское шоссе"},{"distance":2.2999999999999998,"line":"Солнцевская","name":"Говорово"}]},"d2ba60d1-db15-e711-80da-005056ba18b6":{"beautified address":"г Москва, ул Производственная, влд 6 к 1","postal index":119619,"region":"Москва","city":"","district":"р-н Солнцево","latitude":"55.644658","longitude":"37.391296","metro":[{"distance":0.5,"line":"Солнцевская","name":"Солнцево"},{"distance":1.3999999999999999,"line":"Солнцевская","name":"Боровское шоссе"},{"distance":2.2999999999999998,"line":"Солнцевская","name":"Говорово"}]},"d8aab42b-de15-e711-80da-005056ba18b6":{"beautified address":"г Москва, ул Производственная, влд 6 к 2","postal index":119619,"region":"Москва","city":"","district":"р-н Солнцево","latitude":"55.644658","longitude":"37.391296","metro":[{"distance":0.5,"line":"Солнцевская","name":"Солнцево"},{"distance":1.3999999999999999,"line":"Солнцевская","name":"Боровское шоссе"},{"distance":2.2999999999999998,"line":"Солнцевская","name":"Говорово"}]},"7200dd4e-fe3e-e711-80db-005056ba18b6":{"beautified address":"Московская обл, г Мытищи","postal index":141000,"region":"Московская","city":"Мытищи","district":"","latitude":"55.9105782","longitude":"37.7363579","metro":[]},"a33566a6-ff3e-e711-80db-005056ba18b6":{"beautified address":"Московская обл, г Мытищи","postal index":141000,"region":"Московская","city":"Мытищи","district":"","latitude":"55.9105782","longitude":"37.7363579","metro":[]},"f9781dc8-013f-e711-80db-005056ba18b6":{"beautified address":"Московская обл, г Мытищи","postal index":141000,"region":"Московская","city":"Мытищи","district":"","latitude":"55.9105782","longitude":"37.7363579","metro":[]},"6ac46429-023f-e711-80db-005056ba18b6":{"beautified address":"Московская обл, г Мытищи","postal index":141000,"region":"Московская","city":"Мытищи","district":"","latitude":"55.9105782","longitude":"37.7363579","metro":[]},"0f567ba3-033f-e711-80db-005056ba18b6":{"beautified address":"Московская обл, г Мытищи","postal index":141000,"region":"Московская","city":"Мытищи","district":"","latitude":"55.9105782","longitude":"37.7363579","metro":[]},"54473821-053f-e711-80db-005056ba18b6":{"beautified address":"Московская обл, г Мытищи","postal index":141000,"region":"Московская","city":"Мытищи","district":"","latitude":"55.9105782","longitude":"37.7363579","metro":[]},"cc57cca4-6b4b-e711-80db-005056ba18b6":{"beautified address":"Московская обл, Наро-Фоминский р-н, г Городское поселение Апрелевка","postal index":143355,"region":"Московская","city":"Городское поселение Апрелевка","district":"","latitude":"","longitude":"","metro":[]},"5e5afef8-774b-e711-80db-005056ba18b6":{"beautified address":"Московская обл, Наро-Фоминский р-н, г Городское поселение Апрелевка","postal index":143355,"region":"Московская","city":"Городское поселение Апрелевка","district":"","latitude":"","longitude":"","metro":[]},"9fac1477-46c3-e911-811f-005056ba18b6":{"beautified address":"Московская обл, г Пушкино, мкр Новая Деревня, д 25","postal index":141202,"region":"Московская","city":"","district":"","latitude":"56.018621","longitude":"37.8659058","metro":[]},"b2990fb3-46c3-e911-811f-005056ba18b6":{"beautified address":"Московская обл, г Пушкино, мкр Новая Деревня, д 26","postal index":141202,"region":"Московская","city":"","district":"","latitude":"56.018621","longitude":"37.8659058","metro":[]},"d673dc95-9dc8-e911-811f-005056ba18b6":{"beautified address":"г Москва, г Щербинка, ул Восточная, д 1 к 1, кв 2","postal index":108851,"region":"Москва","city":"Щербинка","district":"округ Новомосковский","latitude":"55.4921029","longitude":"37.576186","metro":[]},"66101687-25ca-e911-811f-005056ba18b6":{"beautified address":"г Москва, г Щербинка, ул Восточная, д 1 к 1, кв 2","postal index":108851,"region":"Москва","city":"Щербинка","district":"округ Новомосковский","latitude":"55.4921029","longitude":"37.576186","metro":[]},"58a662c8-26ca-e911-811f-005056ba18b6":{"beautified address":"г Москва, г Щербинка, ул Восточная, д 1 к 4, кв 5","postal index":108851,"region":"Москва","city":"Щербинка","district":"округ Новомосковский","latitude":"55.4921029","longitude":"37.576186","metro":[]},"e51d0fb5-fcca-e911-811f-005056ba18b6":{"beautified address":"г Москва, ул Петра Алексеева, влд 12 к 3","postal index":121471,"region":"Москва","city":"","district":"р-н Можайский","latitude":"55.7169954","longitude":"37.4307381","metro":[{"distance":1.3,"line":"Большая кольцевая линия","name":"Давыдково"},{"distance":1.3999999999999999,"line":"Белорусско-Савеловский","name":"Рабочий поселок"},{"distance":1.6000000000000001,"line":"Белорусско-Савеловский","name":"Кунцево"}]},"613dd6a6-fdca-e911-811f-005056ba18b6":{"beautified address":"г Москва, ул Петра Алексеева, влд 12 к 3","postal index":121471,"region":"Москва","city":"","district":"р-н Можайский","latitude":"55.7169954","longitude":"37.4307381","metro":[{"distance":1.3,"line":"Большая кольцевая линия","name":"Давыдково"},{"distance":1.3999999999999999,"line":"Белорусско-Савеловский","name":"Рабочий поселок"},{"distance":1.6000000000000001,"line":"Белорусско-Савеловский","name":"Кунцево"}]},"94f4983f-feca-e911-811f-005056ba18b6":{"beautified address":"г Москва, ул Петра Алексеева, влд 12 к 3","postal index":121471,"region":"Москва","city":"","district":"р-н Можайский","latitude":"55.7169954","longitude":"37.4307381","metro":[{"distance":1.3,"line":"Большая кольцевая линия","name":"Давыдково"},{"distance":1.3999999999999999,"line":"Белорусско-Савеловский","name":"Рабочий поселок"},{"distance":1.6000000000000001,"line":"Белорусско-Савеловский","name":"Кунцево"}]},"17bc17a3-feca-e911-811f-005056ba18b6":{"beautified address":"г Москва, ул Петра Алексеева, влд 12 к 3","postal index":121471,"region":"Москва","city":"","district":"р-н Можайский","latitude":"55.7169954","longitude":"37.4307381","metro":[{"distance":1.3,"line":"Большая кольцевая линия","name":"Давыдково"},{"distance":1.3999999999999999,"line":"Белорусско-Савеловский","name":"Рабочий поселок"},{"distance":1.6000000000000001,"line":"Белорусско-Савеловский","name":"Кунцево"}]},"30b4bb6a-2cce-e911-811f-005056ba18b6":{"beautified address":"г Москва, ул Петра Алексеева, влд 12 к 1","postal index":121471,"region":"Москва","city":"","district":"р-н Можайский","latitude":"55.7169954","longitude":"37.4307381","metro":[{"distance":1.3,"line":"Большая кольцевая линия","name":"Давыдково"},{"distance":1.3999999999999999,"line":"Белорусско-Савеловский","name":"Рабочий поселок"},{"distance":1.6000000000000001,"line":"Белорусско-Савеловский","name":"Кунцево"}]},"73e5f12a-47ce-e911-811f-005056ba18b6":{"beautified address":"г Москва, ул Петра Алексеева, влд 12 к 1","postal index":121471,"region":"Москва","city":"","district":"р-н Можайский","latitude":"55.7169954","longitude":"37.4307381","metro":[{"distance":1.3,"line":"Большая кольцевая линия","name":"Давыдково"},{"distance":1.3999999999999999,"line":"Белорусско-Савеловский","name":"Рабочий поселок"},{"distance":1.6000000000000001,"line":"Белорусско-Савеловский","name":"Кунцево"}]},"58c9a2bc-c5d3-e911-8121-005056ba18b6":{"beautified address":"г Москва, г Щербинка, ул Восточная, д 1 к 6, кв 7","postal index":108851,"region":"Москва","city":"Щербинка","district":"округ Новомосковский","latitude":"55.4921029","longitude":"37.576186","metro":[]},"2c639896-c6d3-e911-8121-005056ba18b6":{"beautified address":"г Москва, г Щербинка, ул Восточная, д 1 к 6, кв 7","postal index":108851,"region":"Москва","city":"Щербинка","district":"округ Новомосковский","latitude":"55.4921029","longitude":"37.576186","metro":[]},"9f0c5488-c7d3-e911-8121-005056ba18b6":{"beautified address":"г Москва, г Щербинка, ул Восточная, д 1 к 6, кв 7","postal index":108851,"region":"Москва","city":"Щербинка","district":"округ Новомосковский","latitude":"55.4921029","longitude":"37.576186","metro":[]},"1b42ed62-e4e4-e911-8121-005056ba18b6":{"beautified address":"г Москва, ул Петра Алексеева, влд 12 к 1","postal index":121471,"region":"Москва","city":"","district":"р-н Можайский","latitude":"55.7169954","longitude":"37.4307381","metro":[{"distance":1.3,"line":"Большая кольцевая линия","name":"Давыдково"},{"distance":1.3999999999999999,"line":"Белорусско-Савеловский","name":"Рабочий поселок"},{"distance":1.6000000000000001,"line":"Белорусско-Савеловский","name":"Кунцево"}]},"d044d91d-0ce5-e911-8121-005056ba18b6":{"beautified address":"г Москва, ул Петра Алексеева, влд 12 к 1","postal index":121471,"region":"Москва","city":"","district":"р-н Можайский","latitude":"55.7169954","longitude":"37.4307381","metro":[{"distance":1.3,"line":"Большая кольцевая линия","name":"Давыдково"},{"distance":1.3999999999999999,"line":"Белорусско-Савеловский","name":"Рабочий поселок"},{"distance":1.6000000000000001,"line":"Белорусско-Савеловский","name":"Кунцево"}]},"0c345337-0ce5-e911-8121-005056ba18b6":{"beautified address":"г Москва, проезд Тюменский, д 3-5 к 2","postal index":107370,"region":"Москва","city":"","district":"р-н Богородское","latitude":"55.8120232","longitude":"37.7380847","metro":[]},"8de50c49-8a0b-ea11-8123-005056ba18b6":{"beautified address":"г Москва, проезд Тюменский, д 3-5 к 5","postal index":107370,"region":"Москва","city":"","district":"р-н Богородское","latitude":"55.8120232","longitude":"37.7380847","metro":[]},"75962926-8f0b-ea11-8123-005056ba18b6":{"beautified address":"г Москва, проезд Тюменский, д 3-5 к 6","postal index":107370,"region":"Москва","city":"","district":"р-н Богородское","latitude":"55.8120232","longitude":"37.7380847","metro":[]},"408437f7-9f0b-ea11-8123-005056ba18b6":{"beautified address":"г Москва, проезд Тюменский, д 3-5 к 7","postal index":107370,"region":"Москва","city":"","district":"р-н Богородское","latitude":"55.8120232","longitude":"37.7380847","metro":[]},"8b03edae-2b0c-ea11-8123-005056ba18b6":{"beautified address":"г Москва, проезд Тюменский, д 3-5 к 10","postal index":107370,"region":"Москва","city":"","district":"р-н Богородское","latitude":"55.8120232","longitude":"37.7380847","metro":[]},"1e08734a-2f0c-ea11-8123-005056ba18b6":{"beautified address":"г Москва, проезд Тюменский, д 3-5 к 11","postal index":107370,"region":"Москва","city":"","district":"р-н Богородское","latitude":"55.8120232","longitude":"37.7380847","metro":[]},"303e196a-5646-ea11-8126-005056ba18b6":{"beautified address":"Московская обл, г Одинцово, ул Западная, к 3","postal index":143002,"region":"Московская","city":"","district":"","latitude":"55.671402","longitude":"37.240154","metro":[]},"964b2100-5746-ea11-8126-005056ba18b6":{"beautified address":"Московская обл, г Одинцово, ул Западная, к 4","postal index":143002,"region":"Московская","city":"","district":"","latitude":"55.671402","longitude":"37.240154","metro":[]},"129608ac-db4c-ea11-8126-005056ba18b6":{"beautified address":"г Москва, ул Петра Алексеева, влд 12 к 3","postal index":121471,"region":"Москва","city":"","district":"р-н Можайский","latitude":"55.7169954","longitude":"37.4307381","metro":[{"distance":1.3,"line":"Большая кольцевая линия","name":"Давыдково"},{"distance":1.3999999999999999,"line":"Белорусско-Савеловский","name":"Рабочий поселок"},{"distance":1.6000000000000001,"line":"Белорусско-Савеловский","name":"Кунцево"}]},"539b0507-dc4c-ea11-8126-005056ba18b6":{"beautified address":"г Москва, ул Петра Алексеева, влд 12 к 3","postal index":121471,"region":"Москва","city":"","district":"р-н Можайский","latitude":"55.7169954","longitude":"37.4307381","metro":[{"distance":1.3,"line":"Большая кольцевая линия","name":"Давыдково"},{"distance":1.3999999999999999,"line":"Белорусско-Савеловский","name":"Рабочий поселок"},{"distance":1.6000000000000001,"line":"Белорусско-Савеловский","name":"Кунцево"}]},"b8d92b0f-dc4c-ea11-8126-005056ba18b6":{"beautified address":"г Москва, ул Петра Алексеева, влд 12 к 3","postal index":121471,"region":"Москва","city":"","district":"р-н Можайский","latitude":"55.7169954","longitude":"37.4307381","metro":[{"distance":1.3,"line":"Большая кольцевая линия","name":"Давыдково"},{"distance":1.3999999999999999,"line":"Белорусско-Савеловский","name":"Рабочий поселок"},{"distance":1.6000000000000001,"line":"Белорусско-Савеловский","name":"Кунцево"}]},"05763bd0-5c6f-ea11-8126-005056ba18b6":{"beautified address":"г Москва, проезд Электролитный, влд 7А к 2","postal index":0,"region":"Москва","city":"","district":"р-н Нагорный","latitude":"55.6742911","longitude":"37.6096485","metro":[{"distance":0.20000000000000001,"line":"Серпуховско-Тимирязевская","name":"Нагорная"},{"distance":1.1000000000000001,"line":"Серпуховско-Тимирязевская","name":"Нагатинская"},{"distance":1.3999999999999999,"line":"Серпуховско-Тимирязевская","name":"Нахимовский проспект"}]},"368a0034-5d6f-ea11-8126-005056ba18b6":{"beautified address":"г Москва, проезд Электролитный, влд 7А к 3","postal index":0,"region":"Москва","city":"","district":"р-н Нагорный","latitude":"55.6742911","longitude":"37.6096485","metro":[{"distance":0.20000000000000001,"line":"Серпуховско-Тимирязевская","name":"Нагорная"},{"distance":1.1000000000000001,"line":"Серпуховско-Тимирязевская","name":"Нагатинская"},{"distance":1.3999999999999999,"line":"Серпуховско-Тимирязевская","name":"Нахимовский проспект"}]},"67f32b13-3894-ea11-8128-005056ba18b6":{"beautified address":"г Москва, проезд Электролитный, влд 7А к 5","postal index":0,"region":"Москва","city":"","district":"р-н Нагорный","latitude":"55.6742911","longitude":"37.6096485","metro":[{"distance":0.20000000000000001,"line":"Серпуховско-Тимирязевская","name":"Нагорная"},{"distance":1.1000000000000001,"line":"Серпуховско-Тимирязевская","name":"Нагатинская"},{"distance":1.3999999999999999,"line":"Серпуховско-Тимирязевская","name":"Нахимовский проспект"}]},"e63b4e6a-3894-ea11-8128-005056ba18b6":{"beautified address":"г Москва, проезд Электролитный, влд 7А к 1","postal index":0,"region":"Москва","city":"","district":"р-н Нагорный","latitude":"55.6742911","longitude":"37.6096485","metro":[{"distance":0.20000000000000001,"line":"Серпуховско-Тимирязевская","name":"Нагорная"},{"distance":1.1000000000000001,"line":"Серпуховско-Тимирязевская","name":"Нагатинская"},{"distance":1.3999999999999999,"line":"Серпуховско-Тимирязевская","name":"Нахимовский проспект"}]},"059fe1f6-3894-ea11-8128-005056ba18b6":{"beautified address":"г Москва, проезд Электролитный, влд 7А к 4","postal index":0,"region":"Москва","city":"","district":"р-н Нагорный","latitude":"55.6742911","longitude":"37.6096485","metro":[{"distance":0.20000000000000001,"line":"Серпуховско-Тимирязевская","name":"Нагорная"},{"distance":1.1000000000000001,"line":"Серпуховско-Тимирязевская","name":"Нагатинская"},{"distance":1.3999999999999999,"line":"Серпуховско-Тимирязевская","name":"Нахимовский проспект"}]},"fcd74d78-3a94-ea11-8128-005056ba18b6":{"beautified address":"г Москва, проезд Электролитный, влд 7А к 6","postal index":0,"region":"Москва","city":"","district":"р-н Нагорный","latitude":"55.6742911","longitude":"37.6096485","metro":[{"distance":0.20000000000000001,"line":"Серпуховско-Тимирязевская","name":"Нагорная"},{"distance":1.1000000000000001,"line":"Серпуховско-Тимирязевская","name":"Нагатинская"},{"distance":1.3999999999999999,"line":"Серпуховско-Тимирязевская","name":"Нахимовский проспект"}]},"b6971e57-239c-ea11-8128-005056ba18b6":{"beautified address":"Московская обл, г Одинцово, ул Западная, к 8","postal index":143002,"region":"Московская","city":"","district":"","latitude":"55.671402","longitude":"37.240154","metro":[]},"dd72ee3f-2c9c-ea11-8128-005056ba18b6":{"beautified address":"Московская обл, г Одинцово, ул Западная, к 9","postal index":143002,"region":"Московская","city":"","district":"","latitude":"55.671402","longitude":"37.240154","metro":[]},"ef6bf3a0-f8aa-ea11-8129-005056ba18b6":{"beautified address":"г Москва, наб Симоновская, д 1 к 2","postal index":115280,"region":"Москва","city":"","district":"р-н Даниловский","latitude":"55.7171512","longitude":"37.6516733","metro":[{"distance":1.2,"line":"Замоскворецкая","name":"Автозаводская"},{"distance":1.3999999999999999,"line":"МЦК","name":"Автозаводская"},{"distance":1.5,"line":"Люблинско-Дмитровская","name":"Дубровка"}]},"6f6f2dc9-f9aa-ea11-8129-005056ba18b6":{"beautified address":"г Москва, наб Симоновская, д 1 к 2","postal index":115280,"region":"Москва","city":"","district":"р-н Даниловский","latitude":"55.7171512","longitude":"37.6516733","metro":[{"distance":1.2,"line":"Замоскворецкая","name":"Автозаводская"},{"distance":1.3999999999999999,"line":"МЦК","name":"Автозаводская"},{"distance":1.5,"line":"Люблинско-Дмитровская","name":"Дубровка"}]},"d1238044-dcb9-ea11-812b-005056ba18b6":{"beautified address":"г Москва, наб Симоновская, д 7 к 8","postal index":0,"region":"Москва","city":"","district":"р-н Даниловский","latitude":"55.7198785","longitude":"37.6561376","metro":[]},"51b7e73a-9aba-ea11-812b-005056ba18b6":{"beautified address":"г Москва, наб Симоновская, д 1 к 2","postal index":115280,"region":"Москва","city":"","district":"р-н Даниловский","latitude":"55.7171512","longitude":"37.6516733","metro":[{"distance":1.2,"line":"Замоскворецкая","name":"Автозаводская"},{"distance":1.3999999999999999,"line":"МЦК","name":"Автозаводская"},{"distance":1.5,"line":"Люблинско-Дмитровская","name":"Дубровка"}]},"b14dbf9f-e0c5-ea11-812c-005056ba18b6":{"beautified address":"г Москва, наб Симоновская, д 1 к 2","postal index":115280,"region":"Москва","city":"","district":"р-н Даниловский","latitude":"55.7171512","longitude":"37.6516733","metro":[{"distance":1.2,"line":"Замоскворецкая","name":"Автозаводская"},{"distance":1.3999999999999999,"line":"МЦК","name":"Автозаводская"},{"distance":1.5,"line":"Люблинско-Дмитровская","name":"Дубровка"}]},"2537e87d-55d3-ea11-812d-005056ba18b6":{"beautified address":"г Москва, ш Варшавское, влд 170Е к 4","postal index":117405,"region":"Москва","city":"","district":"р-н Чертаново Южное","latitude":"55.580401","longitude":"37.59321","metro":[{"distance":0.40000000000000002,"line":"Серпуховско-Тимирязевская","name":"Аннино"},{"distance":1,"line":"Бутовская","name":"Лесопарковая"},{"distance":1.5,"line":"Курско-Рижский","name":"Битца"}]},"57371ca2-85dc-ea11-812d-005056ba18b6":{"beautified address":"г Москва, наб Симоновская, д 1 к 2","postal index":115280,"region":"Москва","city":"","district":"р-н Даниловский","latitude":"55.7171512","longitude":"37.6516733","metro":[{"distance":1.2,"line":"Замоскворецкая","name":"Автозаводская"},{"distance":1.3999999999999999,"line":"МЦК","name":"Автозаводская"},{"distance":1.5,"line":"Люблинско-Дмитровская","name":"Дубровка"}]},"f466f550-17e6-ea11-812d-005056ba18b6":{"beautified address":"г Москва, наб Симоновская, д 7 к 8","postal index":0,"region":"Москва","city":"","district":"р-н Даниловский","latitude":"55.7198785","longitude":"37.6561376","metro":[]},"77e5aa57-2dec-ea11-812d-005056ba18b6":{"beautified address":"г Москва, наб Симоновская, д 7 к 8","postal index":0,"region":"Москва","city":"","district":"р-н Даниловский","latitude":"55.7198785","longitude":"37.6561376","metro":[]},"abe6cb7f-4cec-ea11-812d-005056ba18b6":{"beautified address":"Московская обл, г Истра, д Лобаново, ул Новая, к 20","postal index":143581,"region":"Московская","city":"","district":"","latitude":"55.826074","longitude":"37.139327","metro":[]},"6c9fc2ad-c7ed-ea11-812d-005056ba18b6":{"beautified address":"г Москва, проезд Электролитный, влд 7А к 3","postal index":0,"region":"Москва","city":"","district":"р-н Нагорный","latitude":"55.6742911","longitude":"37.6096485","metro":[{"distance":0.20000000000000001,"line":"Серпуховско-Тимирязевская","name":"Нагорная"},{"distance":1.1000000000000001,"line":"Серпуховско-Тимирязевская","name":"Нагатинская"},{"distance":1.3999999999999999,"line":"Серпуховско-Тимирязевская","name":"Нахимовский проспект"}]},"738e157c-89f2-ea11-812d-005056ba18b6":{"beautified address":"Московская обл, г Мытищи, тер автодорога Сухарево-Марфино (д Сухарево), км 1-й, к 37","postal index":141052,"region":"Московская","city":"Мытищи","district":"","latitude":"56.0780239","longitude":"37.5172264","metro":[]},"1c46dc51-38f7-ea11-812d-005056ba18b6":{"beautified address":"Московская обл, г Мытищи, тер автодорога Сухарево-Марфино (д Сухарево), км 1-й, к 36","postal index":141052,"region":"Московская","city":"Мытищи","district":"","latitude":"56.0780239","longitude":"37.5172264","metro":[]},"4d0659f7-a207-eb11-812d-005056ba18b6":{"beautified address":"г Москва, наб Симоновская, д 7 к 8","postal index":0,"region":"Москва","city":"","district":"р-н Даниловский","latitude":"55.7198785","longitude":"37.6561376","metro":[]},"9396890c-d607-eb11-812d-005056ba18b6":{"beautified address":"Московская обл, г Наро-Фоминск, г Апрелевка","postal index":143360,"region":"Московская","city":"Апрелевка","district":"","latitude":"55.5276918","longitude":"37.065143","metro":[]},"a9849e18-d707-eb11-812d-005056ba18b6":{"beautified address":"Московская обл, г Наро-Фоминск, г Апрелевка","postal index":143360,"region":"Московская","city":"Апрелевка","district":"","latitude":"55.5276918","longitude":"37.065143","metro":[]},"5a3a5696-9013-eb11-812d-005056ba18b6":{"beautified address":"г Москва, наб Симоновская, д 7 к 8","postal index":0,"region":"Москва","city":"","district":"р-н Даниловский","latitude":"55.7198785","longitude":"37.6561376","metro":[]},"2323808c-3d40-eb11-812f-005056ba18b6":{"beautified address":"Московская обл, г Мытищи, гск N38, д 17 литера а, кв 2","postal index":0,"region":"Московская","city":"Мытищи","district":"","latitude":"55.9105782","longitude":"37.7363579","metro":[]},"1eb3d001-4e40-eb11-812f-005056ba18b6":{"beautified address":"Московская обл, г Мытищи, гск N38, д 17 литера а, кв 2","postal index":0,"region":"Московская","city":"Мытищи","district":"","latitude":"55.9105782","longitude":"37.7363579","metro":[]},"890263f4-3856-eb11-812f-005056ba18b6":{"beautified address":"Московская обл, г Мытищи, д Шолохово","postal index":141000,"region":"Московская","city":"Мытищи","district":"","latitude":"56.049529","longitude":"37.5347109","metro":[]},"473c782d-3956-eb11-812f-005056ba18b6":{"beautified address":"Московская обл, г Одинцово, ул Маршала Бирюзова, д 15А","postal index":143003,"region":"Московская","city":"","district":"","latitude":"55.682899","longitude":"37.267193","metro":[{"distance":1.5,"line":"Белорусско-Савеловский","name":"Одинцово"},{"distance":3,"line":"Белорусско-Савеловский","name":"Баковка"}]},"70b39459-3a56-eb11-812f-005056ba18b6":{"beautified address":"Московская обл, г Одинцово, ул Маршала Бирюзова, д 15А","postal index":143003,"region":"Московская","city":"","district":"","latitude":"55.682899","longitude":"37.267193","metro":[{"distance":1.5,"line":"Белорусско-Савеловский","name":"Одинцово"},{"distance":3,"line":"Белорусско-Савеловский","name":"Баковка"}]},"fe149a0f-3b56-eb11-812f-005056ba18b6":{"beautified address":"Московская обл, г Одинцово, ул Маршала Бирюзова, д 15А","postal index":143003,"region":"Московская","city":"","district":"","latitude":"55.682899","longitude":"37.267193","metro":[{"distance":1.5,"line":"Белорусско-Савеловский","name":"Одинцово"},{"distance":3,"line":"Белорусско-Савеловский","name":"Баковка"}]},"5caf0371-5756-eb11-812f-005056ba18b6":{"beautified address":"Московская обл, г Наро-Фоминск, г Апрелевка","postal index":143360,"region":"Московская","city":"Апрелевка","district":"","latitude":"55.5276918","longitude":"37.065143","metro":[]},"38e1a3d6-6156-eb11-812f-005056ba18b6":{"beautified address":"Московская обл, г Наро-Фоминск, г Апрелевка","postal index":143360,"region":"Московская","city":"Апрелевка","district":"","latitude":"55.5276918","longitude":"37.065143","metro":[]},"324409f1-6f56-eb11-812f-005056ba18b6":{"beautified address":"Московская обл, г Наро-Фоминск, г Апрелевка","postal index":143360,"region":"Московская","city":"Апрелевка","district":"","latitude":"55.5276918","longitude":"37.065143","metro":[]},"23f22b5a-065b-eb11-812f-005056ba18b6":{"beautified address":"г Москва, г Щербинка, ул Восточная, д 1 к 1, кв 2","postal index":108851,"region":"Москва","city":"Щербинка","district":"округ Новомосковский","latitude":"55.4921029","longitude":"37.576186","metro":[]},"b0b01832-075b-eb11-812f-005056ba18b6":{"beautified address":"г Москва, г Щербинка, ул Восточная, д 1 к 4, кв 5","postal index":108851,"region":"Москва","city":"Щербинка","district":"округ Новомосковский","latitude":"55.4921029","longitude":"37.576186","metro":[]},"05e047c8-095b-eb11-812f-005056ba18b6":{"beautified address":"г Москва, г Щербинка, ул Восточная, д 1 к 6, кв 7","postal index":108851,"region":"Москва","city":"Щербинка","district":"округ Новомосковский","latitude":"55.4921029","longitude":"37.576186","metro":[]},"156bfb67-9164-eb11-812f-005056ba18b6":{"beautified address":"Московская обл, г Одинцово, ул Западная, к 5","postal index":143002,"region":"Московская","city":"","district":"","latitude":"55.671402","longitude":"37.240154","metro":[]},"e0c6d25a-9264-eb11-812f-005056ba18b6":{"beautified address":"Московская обл, г Одинцово, ул Западная, к 6","postal index":143002,"region":"Московская","city":"","district":"","latitude":"55.671402","longitude":"37.240154","metro":[]},"9acbf462-9364-eb11-812f-005056ba18b6":{"beautified address":"Московская обл, г Одинцово, ул Западная, к 10","postal index":143002,"region":"Московская","city":"","district":"","latitude":"55.671402","longitude":"37.240154","metro":[]},"9dd5491d-2465-eb11-812f-005056ba18b6":{"beautified address":"г Москва, проезд Электролитный, влд 7А к 3","postal index":0,"region":"Москва","city":"","district":"р-н Нагорный","latitude":"55.6742911","longitude":"37.6096485","metro":[{"distance":0.20000000000000001,"line":"Серпуховско-Тимирязевская","name":"Нагорная"},{"distance":1.1000000000000001,"line":"Серпуховско-Тимирязевская","name":"Нагатинская"},{"distance":1.3999999999999999,"line":"Серпуховско-Тимирязевская","name":"Нахимовский проспект"}]},"556971fc-2465-eb11-812f-005056ba18b6":{"beautified address":"г Москва, проезд Электролитный, влд 7А к 3","postal index":0,"region":"Москва","city":"","district":"р-н Нагорный","latitude":"55.6742911","longitude":"37.6096485","metro":[{"distance":0.20000000000000001,"line":"Серпуховско-Тимирязевская","name":"Нагорная"},{"distance":1.1000000000000001,"line":"Серпуховско-Тимирязевская","name":"Нагатинская"},{"distance":1.3999999999999999,"line":"Серпуховско-Тимирязевская","name":"Нахимовский проспект"}]},"12074e5a-2565-eb11-812f-005056ba18b6":{"beautified address":"г Москва, проезд Электролитный, влд 7А к 3","postal index":0,"region":"Москва","city":"","district":"р-н Нагорный","latitude":"55.6742911","longitude":"37.6096485","metro":[{"distance":0.20000000000000001,"line":"Серпуховско-Тимирязевская","name":"Нагорная"},{"distance":1.1000000000000001,"line":"Серпуховско-Тимирязевская","name":"Нагатинская"},{"distance":1.3999999999999999,"line":"Серпуховско-Тимирязевская","name":"Нахимовский проспект"}]},"df3221ea-ef69-eb11-812f-005056ba18b6":{"beautified address":"Московская обл, г Одинцово, ул Акуловская, д 2Ж к 24","postal index":143002,"region":"Московская","city":"","district":"","latitude":"55.659553","longitude":"37.2393021","metro":[{"distance":3.1000000000000001,"line":"Белорусско-Савеловский","name":"Одинцово"}]},"3bc58a91-2c71-eb11-812f-005056ba18b6":{"beautified address":"Московская обл, г Наро-Фоминск, г Апрелевка","postal index":143360,"region":"Московская","city":"Апрелевка","district":"","latitude":"55.5276918","longitude":"37.065143","metro":[]},"458950d0-2e71-eb11-812f-005056ba18b6":{"beautified address":"Московская обл, г Наро-Фоминск, г Апрелевка","postal index":143360,"region":"Московская","city":"Апрелевка","district":"","latitude":"55.5276918","longitude":"37.065143","metro":[]},"310ffbe0-b072-eb11-812f-005056ba18b6":{"beautified address":"г Москва, наб Симоновская, д 7 к 8","postal index":0,"region":"Москва","city":"","district":"р-н Даниловский","latitude":"55.7198785","longitude":"37.6561376","metro":[]},"167aff20-b576-eb11-812f-005056ba18b6":{"beautified address":"г Москва, наб Симоновская, д 1 к 2","postal index":115280,"region":"Москва","city":"","district":"р-н Даниловский","latitude":"55.7171512","longitude":"37.6516733","metro":[{"distance":1.2,"line":"Замоскворецкая","name":"Автозаводская"},{"distance":1.3999999999999999,"line":"МЦК","name":"Автозаводская"},{"distance":1.5,"line":"Люблинско-Дмитровская","name":"Дубровка"}]},"f1a90761-4c77-eb11-812f-005056ba18b6":{"beautified address":"г Москва, наб Симоновская, д 7 к 8","postal index":0,"region":"Москва","city":"","district":"р-н Даниловский","latitude":"55.7198785","longitude":"37.6561376","metro":[]},"e09f67ce-98bc-eb11-8138-005056ba18b6":{"beautified address":"Московская обл, г Мытищи, тер автодорога Сухарево-Марфино (д Сухарево), км 1-й, к 36","postal index":141052,"region":"Московская","city":"Мытищи","district":"","latitude":"56.0780239","longitude":"37.5172264","metro":[]},"f2c875fb-f0c1-eb11-8139-005056ba18b6":{"beautified address":"г Москва, наб Симоновская, д 1 к 2","postal index":115280,"region":"Москва","city":"","district":"р-н Даниловский","latitude":"55.7171512","longitude":"37.6516733","metro":[{"distance":1.2,"line":"Замоскворецкая","name":"Автозаводская"},{"distance":1.3999999999999999,"line":"МЦК","name":"Автозаводская"},{"distance":1.5,"line":"Люблинско-Дмитровская","name":"Дубровка"}]},"1c02c455-ffc1-eb11-8139-005056ba18b6":{"beautified address":"г Москва, наб Симоновская, д 1 к 2","postal index":115280,"region":"Москва","city":"","district":"р-н Даниловский","latitude":"55.7171512","longitude":"37.6516733","metro":[{"distance":1.2,"line":"Замоскворецкая","name":"Автозаводская"},{"distance":1.3999999999999999,"line":"МЦК","name":"Автозаводская"},{"distance":1.5,"line":"Люблинско-Дмитровская","name":"Дубровка"}]},"3f6557c8-08c2-eb11-8139-005056ba18b6":{"beautified address":"г Москва, наб Симоновская, д 1 к 2","postal index":115280,"region":"Москва","city":"","district":"р-н Даниловский","latitude":"55.7171512","longitude":"37.6516733","metro":[{"distance":1.2,"line":"Замоскворецкая","name":"Автозаводская"},{"distance":1.3999999999999999,"line":"МЦК","name":"Автозаводская"},{"distance":1.5,"line":"Люблинско-Дмитровская","name":"Дубровка"}]},"8fb26b39-09c2-eb11-8139-005056ba18b6":{"beautified address":"г Москва, наб Симоновская, д 1 к 2","postal index":115280,"region":"Москва","city":"","district":"р-н Даниловский","latitude":"55.7171512","longitude":"37.6516733","metro":[{"distance":1.2,"line":"Замоскворецкая","name":"Автозаводская"},{"distance":1.3999999999999999,"line":"МЦК","name":"Автозаводская"},{"distance":1.5,"line":"Люблинско-Дмитровская","name":"Дубровка"}]},"a020a1d3-09c2-eb11-8139-005056ba18b6":{"beautified address":"г Москва, наб Симоновская, д 1 к 2","postal index":115280,"region":"Москва","city":"","district":"р-н Даниловский","latitude":"55.7171512","longitude":"37.6516733","metro":[{"distance":1.2,"line":"Замоскворецкая","name":"Автозаводская"},{"distance":1.3999999999999999,"line":"МЦК","name":"Автозаводская"},{"distance":1.5,"line":"Люблинско-Дмитровская","name":"Дубровка"}]},"8dda8249-0ac2-eb11-8139-005056ba18b6":{"beautified address":"г Москва, наб Симоновская, д 1 к 2","postal index":115280,"region":"Москва","city":"","district":"р-н Даниловский","latitude":"55.7171512","longitude":"37.6516733","metro":[{"distance":1.2,"line":"Замоскворецкая","name":"Автозаводская"},{"distance":1.3999999999999999,"line":"МЦК","name":"Автозаводская"},{"distance":1.5,"line":"Люблинско-Дмитровская","name":"Дубровка"}]},"d0ce9020-19c2-eb11-8139-005056ba18b6":{"beautified address":"г Москва, наб Симоновская, д 7 к 8","postal index":0,"region":"Москва","city":"","district":"р-н Даниловский","latitude":"55.7198785","longitude":"37.6561376","metro":[]},"dd4f933b-a0c2-eb11-8139-005056ba18b6":{"beautified address":"г Москва, наб Симоновская, д 7 к 8","postal index":0,"region":"Москва","city":"","district":"р-н Даниловский","latitude":"55.7198785","longitude":"37.6561376","metro":[]},"20875d94-a9ce-eb11-8139-005056ba18b6":{"beautified address":"Московская обл, г Видное, п Развилка, д 207Ю к 1","postal index":142717,"region":"Московская","city":"Видное","district":"","latitude":"55.5910584","longitude":"37.7528578","metro":[]},"fef4de29-38cf-eb11-8139-005056ba18b6":{"beautified address":"Московская обл, г Видное, п Развилка, д 207Ю к 2","postal index":142717,"region":"Московская","city":"Видное","district":"","latitude":"55.5910584","longitude":"37.7528578","metro":[]},"f2d261a2-ebde-eb11-8139-005056ba18b6":{"beautified address":"г Москва, ул Петра Алексеева, влд 12 к 3","postal index":121471,"region":"Москва","city":"","district":"р-н Можайский","latitude":"55.7169954","longitude":"37.4307381","metro":[{"distance":1.3,"line":"Большая кольцевая линия","name":"Давыдково"},{"distance":1.3999999999999999,"line":"Белорусско-Савеловский","name":"Рабочий поселок"},{"distance":1.6000000000000001,"line":"Белорусско-Савеловский","name":"Кунцево"}]},"778147cb-edde-eb11-8139-005056ba18b6":{"beautified address":"г Москва, ул Петра Алексеева, влд 12 к 3","postal index":121471,"region":"Москва","city":"","district":"р-н Можайский","latitude":"55.7169954","longitude":"37.4307381","metro":[{"distance":1.3,"line":"Большая кольцевая линия","name":"Давыдково"},{"distance":1.3999999999999999,"line":"Белорусско-Савеловский","name":"Рабочий поселок"},{"distance":1.6000000000000001,"line":"Белорусско-Савеловский","name":"Кунцево"}]},"953db85a-fadf-eb11-8139-005056ba18b6":{"beautified address":"г Москва, ул Петра Алексеева, влд 12 к 3","postal index":121471,"region":"Москва","city":"","district":"р-н Можайский","latitude":"55.7169954","longitude":"37.4307381","metro":[{"distance":1.3,"line":"Большая кольцевая линия","name":"Давыдково"},{"distance":1.3999999999999999,"line":"Белорусско-Савеловский","name":"Рабочий поселок"},{"distance":1.6000000000000001,"line":"Белорусско-Савеловский","name":"Кунцево"}]},"376a8622-af0c-ec11-813b-005056ba18b6":{"beautified address":"Московская обл, г Пушкино, мкр Новая Деревня, к 28","postal index":141202,"region":"Московская","city":"","district":"","latitude":"56.018621","longitude":"37.8659058","metro":[]},"2a3d2509-c721-ec11-813b-005056ba18b6":{"beautified address":"Московская обл, г Пушкино, мкр Новая Деревня, к 27","postal index":141202,"region":"Московская","city":"","district":"","latitude":"56.018621","longitude":"37.8659058","metro":[]},"fd29b8b7-1f37-ec11-813c-005056ba18b6":{"beautified address":"Московская обл, г Видное, п Развилка, д 207Ю к 1","postal index":142717,"region":"Московская","city":"Видное","district":"","latitude":"55.5910584","longitude":"37.7528578","metro":[]},"2f5cf443-2337-ec11-813c-005056ba18b6":{"beautified address":"Московская обл, г Видное, п Развилка, д 207Ю к 2","postal index":142717,"region":"Московская","city":"Видное","district":"","latitude":"55.5910584","longitude":"37.7528578","metro":[]},"3c21d4c8-274c-ec11-813d-005056ba18b6":{"beautified address":"Московская обл, г Мытищи","postal index":141000,"region":"Московская","city":"Мытищи","district":"","latitude":"55.9105782","longitude":"37.7363579","metro":[]},"250f3f40-085c-ec11-813d-005056ba18b6":{"beautified address":"Московская обл, г Мытищи","postal index":141000,"region":"Московская","city":"Мытищи","district":"","latitude":"55.9105782","longitude":"37.7363579","metro":[]},"268895c3-bd67-ec11-813d-005056ba18b6":{"beautified address":"Московская обл, г Мытищи","postal index":141000,"region":"Московская","city":"Мытищи","district":"","latitude":"55.9105782","longitude":"37.7363579","metro":[]},"5eabf0d3-be67-ec11-813d-005056ba18b6":{"beautified address":"Московская обл, г Мытищи","postal index":141000,"region":"Московская","city":"Мытищи","district":"","latitude":"55.9105782","longitude":"37.7363579","metro":[]},"0aea322e-bf67-ec11-813d-005056ba18b6":{"beautified address":"Московская обл, г Мытищи","postal index":141000,"region":"Московская","city":"Мытищи","district":"","latitude":"55.9105782","longitude":"37.7363579","metro":[]},"9537483e-ea7a-ec11-813e-005056ba18b6":{"beautified address":"г Москва, г Щербинка, ул Восточная, д 1 к 1, кв 2","postal index":108851,"region":"Москва","city":"Щербинка","district":"округ Новомосковский","latitude":"55.4921029","longitude":"37.576186","metro":[]},"faedc4e3-ed7a-ec11-813e-005056ba18b6":{"beautified address":"г Москва, г Щербинка, ул Восточная, д 1 к 1, кв 2","postal index":108851,"region":"Москва","city":"Щербинка","district":"округ Новомосковский","latitude":"55.4921029","longitude":"37.576186","metro":[]},"c5a4e438-ef7a-ec11-813e-005056ba18b6":{"beautified address":"г Москва, г Щербинка, ул Восточная, д 1 к 4, кв 5","postal index":108851,"region":"Москва","city":"Щербинка","district":"округ Новомосковский","latitude":"55.4921029","longitude":"37.576186","metro":[]},"6a3c07e3-7c7b-ec11-813e-005056ba18b6":{"beautified address":"г Москва, г Щербинка, ул Восточная, д 1 к 4, кв 5","postal index":108851,"region":"Москва","city":"Щербинка","district":"округ Новомосковский","latitude":"55.4921029","longitude":"37.576186","metro":[]},"54f65900-817b-ec11-813e-005056ba18b6":{"beautified address":"г Москва, г Щербинка, ул Восточная, д 1 к 6, кв 7","postal index":108851,"region":"Москва","city":"Щербинка","district":"округ Новомосковский","latitude":"55.4921029","longitude":"37.576186","metro":[]},"8f79993d-897b-ec11-813e-005056ba18b6":{"beautified address":"г Москва, г Щербинка, ул Восточная, д 1 к 6, кв 7","postal index":108851,"region":"Москва","city":"Щербинка","district":"округ Новомосковский","latitude":"55.4921029","longitude":"37.576186","metro":[]},"666e80db-6583-ec11-813e-005056ba18b6":{"beautified address":"Московская обл, г Пушкино, мкр Новая Деревня, к 21","postal index":141202,"region":"Московская","city":"","district":"","latitude":"56.018621","longitude":"37.8659058","metro":[]},"272c7edd-6783-ec11-813e-005056ba18b6":{"beautified address":"Московская обл, г Пушкино, мкр Новая Деревня, к 23","postal index":141202,"region":"Московская","city":"","district":"","latitude":"56.018621","longitude":"37.8659058","metro":[]},"eded212f-7a4b-e711-80db-005056ba18b6":{"beautified address":"Московская обл, Наро-Фоминский р-н, г Городское поселение Апрелевка","postal index":143355,"region":"Московская","city":"Городское поселение Апрелевка","district":"","latitude":"","longitude":"","metro":[]},"0c2e6d1b-7d4b-e711-80db-005056ba18b6":{"beautified address":"Московская обл, Наро-Фоминский р-н, г Городское поселение Апрелевка","postal index":143355,"region":"Московская","city":"Городское поселение Апрелевка","district":"","latitude":"","longitude":"","metro":[]},"2d1eadcf-7d4b-e711-80db-005056ba18b6":{"beautified address":"Московская обл, Наро-Фоминский р-н, г Городское поселение Апрелевка","postal index":143355,"region":"Московская","city":"Городское поселение Апрелевка","district":"","latitude":"","longitude":"","metro":[]},"dff07f0c-804b-e711-80db-005056ba18b6":{"beautified address":"Московская обл, Наро-Фоминский р-н, г Городское поселение Апрелевка","postal index":143355,"region":"Московская","city":"Городское поселение Апрелевка","district":"","latitude":"","longitude":"","metro":[]},"e1f07f0c-804b-e711-80db-005056ba18b6":{"beautified address":"Московская обл, Наро-Фоминский р-н, г Городское поселение Апрелевка","postal index":143355,"region":"Московская","city":"Городское поселение Апрелевка","district":"","latitude":"","longitude":"","metro":[]},"e09bf041-814b-e711-80db-005056ba18b6":{"beautified address":"Московская обл, Наро-Фоминский р-н, г Городское поселение Апрелевка","postal index":143355,"region":"Московская","city":"Городское поселение Апрелевка","district":"","latitude":"","longitude":"","metro":[]},"a646ef7f-814b-e711-80db-005056ba18b6":{"beautified address":"Московская обл, Наро-Фоминский р-н, г Городское поселение Апрелевка","postal index":143355,"region":"Московская","city":"Городское поселение Апрелевка","district":"","latitude":"","longitude":"","metro":[]},"97be58b8-844b-e711-80db-005056ba18b6":{"beautified address":"Московская обл, Наро-Фоминский р-н, г Городское поселение Апрелевка","postal index":143355,"region":"Московская","city":"Городское поселение Апрелевка","district":"","latitude":"","longitude":"","metro":[]},"fe4647e7-884b-e711-80db-005056ba18b6":{"beautified address":"Московская обл, Истринский р-н, с\/п Павло-Слободское","postal index":0,"region":"Московская","city":"Павло-Слободское","district":"","latitude":"","longitude":"","metro":[]},"7d456c87-304c-e711-80dc-005056ba18b6":{"beautified address":"Московская обл, г Истра, д Лобаново, ул Новая, к 3","postal index":143581,"region":"Московская","city":"","district":"","latitude":"55.826074","longitude":"37.139327","metro":[]},"601e2100-2e50-e711-80dc-005056ba18b6":{"beautified address":"Московская обл, г Одинцово, ул Акуловская, д 2Ж к 23","postal index":143002,"region":"Московская","city":"","district":"","latitude":"55.659553","longitude":"37.2393021","metro":[{"distance":3.1000000000000001,"line":"Белорусско-Савеловский","name":"Одинцово"}]},"64d95bc8-2e50-e711-80dc-005056ba18b6":{"beautified address":"Московская обл, г Одинцово, тер. СНТ Дубки, к 14\/1","postal index":143081,"region":"Московская","city":"","district":"","latitude":"55.6789455","longitude":"37.263686","metro":[]},"9882cdfa-df50-e711-80dc-005056ba18b6":{"beautified address":"Московская обл, г Одинцово, ул Акуловская, д 2 к 14","postal index":143002,"region":"Московская","city":"","district":"","latitude":"55.659553","longitude":"37.2393021","metro":[{"distance":3.1000000000000001,"line":"Белорусско-Савеловский","name":"Одинцово"}]},"bb16111a-a55c-e711-80dd-005056ba18b6":{"beautified address":"Московская обл, г Мытищи, д Румянцево","postal index":141000,"region":"Московская","city":"Мытищи","district":"","latitude":"56.093134","longitude":"37.62696","metro":[]},"42376421-a65c-e711-80dd-005056ba18b6":{"beautified address":"Владимирская обл, Ковровский р-н, д Мартемьяново","postal index":601969,"region":"Владимирская","city":"","district":"","latitude":"56.1818743","longitude":"41.2738126","metro":[]},"4e55d8fe-e562-e711-80e1-005056ba18b6":{"beautified address":"г Москва, ул Новочерёмушкинская, влд 17 к 1","postal index":0,"region":"Москва","city":"","district":"р-н Черемушки","latitude":"55.6836068","longitude":"37.5822863","metro":[{"distance":0.69999999999999996,"line":"Калужско-Рижская","name":"Академическая"},{"distance":1.3999999999999999,"line":"Калужско-Рижская","name":"Профсоюзная"},{"distance":1.6000000000000001,"line":"МЦК","name":"Крымская"}]},"a1b276f9-8786-e711-80e5-005056ba18b6":{"beautified address":"г Москва, ул Новочерёмушкинская, влд 17 к 2","postal index":0,"region":"Москва","city":"","district":"р-н Черемушки","latitude":"55.6836068","longitude":"37.5822863","metro":[{"distance":0.69999999999999996,"line":"Калужско-Рижская","name":"Академическая"},{"distance":1.3999999999999999,"line":"Калужско-Рижская","name":"Профсоюзная"},{"distance":1.6000000000000001,"line":"МЦК","name":"Крымская"}]},"77856415-8886-e711-80e5-005056ba18b6":{"beautified address":"г Москва, ул Новочерёмушкинская, влд 17 к 3","postal index":0,"region":"Москва","city":"","district":"р-н Черемушки","latitude":"55.6836068","longitude":"37.5822863","metro":[{"distance":0.69999999999999996,"line":"Калужско-Рижская","name":"Академическая"},{"distance":1.3999999999999999,"line":"Калужско-Рижская","name":"Профсоюзная"},{"distance":1.6000000000000001,"line":"МЦК","name":"Крымская"}]},"6d37e92a-8886-e711-80e5-005056ba18b6":{"beautified address":"г Москва, ул Новочерёмушкинская, влд 17 к 4","postal index":0,"region":"Москва","city":"","district":"р-н Черемушки","latitude":"55.6836068","longitude":"37.5822863","metro":[{"distance":0.69999999999999996,"line":"Калужско-Рижская","name":"Академическая"},{"distance":1.3999999999999999,"line":"Калужско-Рижская","name":"Профсоюзная"},{"distance":1.6000000000000001,"line":"МЦК","name":"Крымская"}]},"e8a7e653-f6ac-e711-80e6-005056ba18b6":{"beautified address":"Московская обл, Наро-Фоминский р-н, г Городское поселение Апрелевка","postal index":143355,"region":"Московская","city":"Городское поселение Апрелевка","district":"","latitude":"","longitude":"","metro":[]},"721d04b2-ffac-e711-80e6-005056ba18b6":{"beautified address":"Московская обл, Наро-Фоминский р-н, г Городское поселение Апрелевка","postal index":143355,"region":"Московская","city":"Городское поселение Апрелевка","district":"","latitude":"","longitude":"","metro":[]},"c76f28d0-50ae-e711-80e6-005056ba18b6":{"beautified address":"г Москва, ул Паршина, влд 10 к 1","postal index":123103,"region":"Москва","city":"","district":"р-н Хорошево-Мневники","latitude":"55.7902907","longitude":"37.4577513","metro":[{"distance":2.2000000000000002,"line":"Таганско-Краснопресненская","name":"Щукинская"},{"distance":2.2999999999999998,"line":"Таганско-Краснопресненская","name":"Октябрьское поле"},{"distance":2.2999999999999998,"line":"Курско-Рижский","name":"Щукинская"}]},"59f43c0a-51ae-e711-80e6-005056ba18b6":{"beautified address":"г Москва, ул Паршина, влд 10 к 2","postal index":123103,"region":"Москва","city":"","district":"р-н Хорошево-Мневники","latitude":"55.7902907","longitude":"37.4577513","metro":[{"distance":2.2000000000000002,"line":"Таганско-Краснопресненская","name":"Щукинская"},{"distance":2.2999999999999998,"line":"Таганско-Краснопресненская","name":"Октябрьское поле"},{"distance":2.2999999999999998,"line":"Курско-Рижский","name":"Щукинская"}]},"a83a8425-51ae-e711-80e6-005056ba18b6":{"beautified address":"г Москва, ул Паршина, влд 10 к 3","postal index":123103,"region":"Москва","city":"","district":"р-н Хорошево-Мневники","latitude":"55.7902907","longitude":"37.4577513","metro":[{"distance":2.2000000000000002,"line":"Таганско-Краснопресненская","name":"Щукинская"},{"distance":2.2999999999999998,"line":"Таганско-Краснопресненская","name":"Октябрьское поле"},{"distance":2.2999999999999998,"line":"Курско-Рижский","name":"Щукинская"}]},"d13be5c6-51ae-e711-80e6-005056ba18b6":{"beautified address":"г Москва, ул Паршина, влд 10 к 4","postal index":123103,"region":"Москва","city":"","district":"р-н Хорошево-Мневники","latitude":"55.7902907","longitude":"37.4577513","metro":[{"distance":2.2000000000000002,"line":"Таганско-Краснопресненская","name":"Щукинская"},{"distance":2.2999999999999998,"line":"Таганско-Краснопресненская","name":"Октябрьское поле"},{"distance":2.2999999999999998,"line":"Курско-Рижский","name":"Щукинская"}]},"74585bef-52ae-e711-80e6-005056ba18b6":{"beautified address":"г Москва, ул Паршина, влд 10 к 5","postal index":123103,"region":"Москва","city":"","district":"р-н Хорошево-Мневники","latitude":"55.7902907","longitude":"37.4577513","metro":[{"distance":2.2000000000000002,"line":"Таганско-Краснопресненская","name":"Щукинская"},{"distance":2.2999999999999998,"line":"Таганско-Краснопресненская","name":"Октябрьское поле"},{"distance":2.2999999999999998,"line":"Курско-Рижский","name":"Щукинская"}]},"8aeb57a3-53ae-e711-80e6-005056ba18b6":{"beautified address":"г Москва, ул Паршина, влд 10 к 6","postal index":123103,"region":"Москва","city":"","district":"р-н Хорошево-Мневники","latitude":"55.7902907","longitude":"37.4577513","metro":[{"distance":2.2000000000000002,"line":"Таганско-Краснопресненская","name":"Щукинская"},{"distance":2.2999999999999998,"line":"Таганско-Краснопресненская","name":"Октябрьское поле"},{"distance":2.2999999999999998,"line":"Курско-Рижский","name":"Щукинская"}]},"fcf54bcf-98c4-e711-80e7-005056ba18b6":{"beautified address":"Московская обл, Истринский р-н, с\/п Павло-Слободское","postal index":0,"region":"Московская","city":"Павло-Слободское","district":"","latitude":"","longitude":"","metro":[]},"fff54bcf-98c4-e711-80e7-005056ba18b6":{"beautified address":"Московская обл, Истринский р-н, с\/п Павло-Слободское","postal index":0,"region":"Московская","city":"Павло-Слободское","district":"","latitude":"","longitude":"","metro":[]},"01f64bcf-98c4-e711-80e7-005056ba18b6":{"beautified address":"Московская обл, Истринский р-н, с\/п Павло-Слободское","postal index":0,"region":"Московская","city":"Павло-Слободское","district":"","latitude":"","longitude":"","metro":[]},"03f64bcf-98c4-e711-80e7-005056ba18b6":{"beautified address":"Московская обл, Истринский р-н, с\/п Павло-Слободское","postal index":0,"region":"Московская","city":"Павло-Слободское","district":"","latitude":"","longitude":"","metro":[]},"05f64bcf-98c4-e711-80e7-005056ba18b6":{"beautified address":"Московская обл, Истринский р-н, с\/п Павло-Слободское","postal index":0,"region":"Московская","city":"Павло-Слободское","district":"","latitude":"","longitude":"","metro":[]},"07f64bcf-98c4-e711-80e7-005056ba18b6":{"beautified address":"Московская обл, Истринский р-н, с\/п Павло-Слободское","postal index":0,"region":"Московская","city":"Павло-Слободское","district":"","latitude":"","longitude":"","metro":[]},"09f64bcf-98c4-e711-80e7-005056ba18b6":{"beautified address":"Московская обл, Истринский р-н, с\/п Павло-Слободское","postal index":0,"region":"Московская","city":"Павло-Слободское","district":"","latitude":"","longitude":"","metro":[]},"5560b6e1-1fc5-e711-80e7-005056ba18b6":{"beautified address":"г Москва, ул Вавилова, влд 69А","postal index":0,"region":"Москва","city":"","district":"р-н Донской","latitude":"55.681047","longitude":"37.551088","metro":[{"distance":0.80000000000000004,"line":"Калужско-Рижская","name":"Профсоюзная"},{"distance":1.2,"line":"Калужско-Рижская","name":"Новые Черемушки"},{"distance":1.5,"line":"Калужско-Рижская","name":"Академическая"}]},"7ced900d-21c5-e711-80e7-005056ba18b6":{"beautified address":"г Москва, ул Новочерёмушкинская, влд 17 к 4","postal index":0,"region":"Москва","city":"","district":"р-н Черемушки","latitude":"55.6836068","longitude":"37.5822863","metro":[{"distance":0.69999999999999996,"line":"Калужско-Рижская","name":"Академическая"},{"distance":1.3999999999999999,"line":"Калужско-Рижская","name":"Профсоюзная"},{"distance":1.6000000000000001,"line":"МЦК","name":"Крымская"}]},"7feba027-21c5-e711-80e7-005056ba18b6":{"beautified address":"г Москва, ул Вавилова, влд 69А","postal index":0,"region":"Москва","city":"","district":"р-н Донской","latitude":"55.681047","longitude":"37.551088","metro":[{"distance":0.80000000000000004,"line":"Калужско-Рижская","name":"Профсоюзная"},{"distance":1.2,"line":"Калужско-Рижская","name":"Новые Черемушки"},{"distance":1.5,"line":"Калужско-Рижская","name":"Академическая"}]},"aac3a363-21c5-e711-80e7-005056ba18b6":{"beautified address":"г Москва, ул Новочерёмушкинская, влд 17 к 4","postal index":0,"region":"Москва","city":"","district":"р-н Черемушки","latitude":"55.6836068","longitude":"37.5822863","metro":[{"distance":0.69999999999999996,"line":"Калужско-Рижская","name":"Академическая"},{"distance":1.3999999999999999,"line":"Калужско-Рижская","name":"Профсоюзная"},{"distance":1.6000000000000001,"line":"МЦК","name":"Крымская"}]},"75df7160-03d4-e711-80e8-005056ba18b6":{"beautified address":"г Москва, ш Варшавское, влд 170Е к 1","postal index":117405,"region":"Москва","city":"","district":"р-н Чертаново Южное","latitude":"55.580401","longitude":"37.59321","metro":[{"distance":0.40000000000000002,"line":"Серпуховско-Тимирязевская","name":"Аннино"},{"distance":1,"line":"Бутовская","name":"Лесопарковая"},{"distance":1.5,"line":"Курско-Рижский","name":"Битца"}]},"cea22169-04d4-e711-80e8-005056ba18b6":{"beautified address":"г Москва, ш Варшавское, влд 170Е к 2","postal index":117405,"region":"Москва","city":"","district":"р-н Чертаново Южное","latitude":"55.580401","longitude":"37.59321","metro":[{"distance":0.40000000000000002,"line":"Серпуховско-Тимирязевская","name":"Аннино"},{"distance":1,"line":"Бутовская","name":"Лесопарковая"},{"distance":1.5,"line":"Курско-Рижский","name":"Битца"}]},"c1a02ada-04d4-e711-80e8-005056ba18b6":{"beautified address":"г Москва, ш Варшавское, влд 170Е к 3","postal index":117405,"region":"Москва","city":"","district":"р-н Чертаново Южное","latitude":"55.580401","longitude":"37.59321","metro":[{"distance":0.40000000000000002,"line":"Серпуховско-Тимирязевская","name":"Аннино"},{"distance":1,"line":"Бутовская","name":"Лесопарковая"},{"distance":1.5,"line":"Курско-Рижский","name":"Битца"}]},"18d3342f-05d4-e711-80e8-005056ba18b6":{"beautified address":"г Москва, ш Варшавское, влд 170Е к 4","postal index":117405,"region":"Москва","city":"","district":"р-н Чертаново Южное","latitude":"55.580401","longitude":"37.59321","metro":[{"distance":0.40000000000000002,"line":"Серпуховско-Тимирязевская","name":"Аннино"},{"distance":1,"line":"Бутовская","name":"Лесопарковая"},{"distance":1.5,"line":"Курско-Рижский","name":"Битца"}]},"5efd9c84-17d4-e711-80e8-005056ba18b6":{"beautified address":"г Москва, ш Варшавское, влд 170Е к 5","postal index":117405,"region":"Москва","city":"","district":"р-н Чертаново Южное","latitude":"55.580401","longitude":"37.59321","metro":[{"distance":0.40000000000000002,"line":"Серпуховско-Тимирязевская","name":"Аннино"},{"distance":1,"line":"Бутовская","name":"Лесопарковая"},{"distance":1.5,"line":"Курско-Рижский","name":"Битца"}]},"a84d4ae1-17d4-e711-80e8-005056ba18b6":{"beautified address":"г Москва, ш Варшавское, влд 170Е к 6","postal index":117405,"region":"Москва","city":"","district":"р-н Чертаново Южное","latitude":"55.580401","longitude":"37.59321","metro":[{"distance":0.40000000000000002,"line":"Серпуховско-Тимирязевская","name":"Аннино"},{"distance":1,"line":"Бутовская","name":"Лесопарковая"},{"distance":1.5,"line":"Курско-Рижский","name":"Битца"}]},"286ea867-18d4-e711-80e8-005056ba18b6":{"beautified address":"г Москва, ш Варшавское, влд 170Е к 7","postal index":117405,"region":"Москва","city":"","district":"р-н Чертаново Южное","latitude":"55.580401","longitude":"37.59321","metro":[{"distance":0.40000000000000002,"line":"Серпуховско-Тимирязевская","name":"Аннино"},{"distance":1,"line":"Бутовская","name":"Лесопарковая"},{"distance":1.5,"line":"Курско-Рижский","name":"Битца"}]},"59658a9d-87da-e711-80e8-005056ba18b6":{"beautified address":"г Москва, Московский п, д Картмазово, д 16\/1 к 2","postal index":108811,"region":"Москва","city":"","district":"округ Новомосковский","latitude":"55.6166366","longitude":"37.3992252","metro":[{"distance":1.7,"line":"Сокольническая","name":"Саларьево"},{"distance":1.8,"line":"Сокольническая","name":"Филатов луг"},{"distance":3.2000000000000002,"line":"Сокольническая","name":"Румянцево"}]},"4c28a321-8dda-e711-80e8-005056ba18b6":{"beautified address":"г Москва, Московский п, д Картмазово, д 16\/1 к 1","postal index":108811,"region":"Москва","city":"","district":"округ Новомосковский","latitude":"55.6166366","longitude":"37.3992252","metro":[{"distance":1.7,"line":"Сокольническая","name":"Саларьево"},{"distance":1.8,"line":"Сокольническая","name":"Филатов луг"},{"distance":3.2000000000000002,"line":"Сокольническая","name":"Румянцево"}]},"1e85dd60-52e5-e711-80e8-005056ba18b6":{"beautified address":"г Москва, ул Производственная, влд 6 к 1","postal index":119619,"region":"Москва","city":"","district":"р-н Солнцево","latitude":"55.644658","longitude":"37.391296","metro":[{"distance":0.5,"line":"Солнцевская","name":"Солнцево"},{"distance":1.3999999999999999,"line":"Солнцевская","name":"Боровское шоссе"},{"distance":2.2999999999999998,"line":"Солнцевская","name":"Говорово"}]},"d14602fc-52e5-e711-80e8-005056ba18b6":{"beautified address":"г Москва, ул Производственная, влд 6 к 2","postal index":119619,"region":"Москва","city":"","district":"р-н Солнцево","latitude":"55.644658","longitude":"37.391296","metro":[{"distance":0.5,"line":"Солнцевская","name":"Солнцево"},{"distance":1.3999999999999999,"line":"Солнцевская","name":"Боровское шоссе"},{"distance":2.2999999999999998,"line":"Солнцевская","name":"Говорово"}]},"89ec7db6-53e5-e711-80e8-005056ba18b6":{"beautified address":"г Москва, ул Производственная, влд 6 к 5","postal index":119619,"region":"Москва","city":"","district":"р-н Солнцево","latitude":"55.644658","longitude":"37.391296","metro":[{"distance":0.5,"line":"Солнцевская","name":"Солнцево"},{"distance":1.3999999999999999,"line":"Солнцевская","name":"Боровское шоссе"},{"distance":2.2999999999999998,"line":"Солнцевская","name":"Говорово"}]},"90a01d4b-54e5-e711-80e8-005056ba18b6":{"beautified address":"г Москва, ул Производственная, влд 6 к 6","postal index":119619,"region":"Москва","city":"","district":"р-н Солнцево","latitude":"55.644658","longitude":"37.391296","metro":[{"distance":0.5,"line":"Солнцевская","name":"Солнцево"},{"distance":1.3999999999999999,"line":"Солнцевская","name":"Боровское шоссе"},{"distance":2.2999999999999998,"line":"Солнцевская","name":"Говорово"}]},"a7bf6de0-9005-e811-80ea-005056ba18b6":{"beautified address":"г Москва, ул Производственная, влд 6 к 6","postal index":119619,"region":"Москва","city":"","district":"р-н Солнцево","latitude":"55.644658","longitude":"37.391296","metro":[{"distance":0.5,"line":"Солнцевская","name":"Солнцево"},{"distance":1.3999999999999999,"line":"Солнцевская","name":"Боровское шоссе"},{"distance":2.2999999999999998,"line":"Солнцевская","name":"Говорово"}]},"e118f27b-9105-e811-80ea-005056ba18b6":{"beautified address":"г Москва, ул Производственная, влд 6 к 5","postal index":119619,"region":"Москва","city":"","district":"р-н Солнцево","latitude":"55.644658","longitude":"37.391296","metro":[{"distance":0.5,"line":"Солнцевская","name":"Солнцево"},{"distance":1.3999999999999999,"line":"Солнцевская","name":"Боровское шоссе"},{"distance":2.2999999999999998,"line":"Солнцевская","name":"Говорово"}]},"44348560-d90b-e811-80ec-005056ba18b6":{"beautified address":"г Москва, ул Петра Алексеева, влд 12А к 1","postal index":121471,"region":"Москва","city":"","district":"р-н Можайский","latitude":"55.7169954","longitude":"37.4307381","metro":[{"distance":1.3,"line":"Большая кольцевая линия","name":"Давыдково"},{"distance":1.3999999999999999,"line":"Белорусско-Савеловский","name":"Рабочий поселок"},{"distance":1.6000000000000001,"line":"Белорусско-Савеловский","name":"Кунцево"}]},"205fcec6-d90b-e811-80ec-005056ba18b6":{"beautified address":"г Москва, ул Петра Алексеева, влд 12А к 4","postal index":121471,"region":"Москва","city":"","district":"р-н Можайский","latitude":"55.7169954","longitude":"37.4307381","metro":[{"distance":1.3,"line":"Большая кольцевая линия","name":"Давыдково"},{"distance":1.3999999999999999,"line":"Белорусско-Савеловский","name":"Рабочий поселок"},{"distance":1.6000000000000001,"line":"Белорусско-Савеловский","name":"Кунцево"}]},"11e5dca9-d521-e811-80ec-005056ba18b6":{"beautified address":"Московская обл, г Пушкино, мкр Новая Деревня, к 13","postal index":141202,"region":"Московская","city":"","district":"","latitude":"56.018621","longitude":"37.8659058","metro":[]},"d590f25d-f721-e811-80ec-005056ba18b6":{"beautified address":"Московская обл, г Пушкино, мкр Новая Деревня, к 16","postal index":141202,"region":"Московская","city":"","district":"","latitude":"56.018621","longitude":"37.8659058","metro":[]},"35b191c3-f428-e811-80ec-005056ba18b6":{"beautified address":"г Москва, проезд Тюменский, д 3-5 к 3","postal index":107370,"region":"Москва","city":"","district":"р-н Богородское","latitude":"55.8120232","longitude":"37.7380847","metro":[]},"c5d91977-f728-e811-80ec-005056ba18b6":{"beautified address":"г Москва, проезд Тюменский, д 3-5 к 4","postal index":107370,"region":"Москва","city":"","district":"р-н Богородское","latitude":"55.8120232","longitude":"37.7380847","metro":[]},"61033688-f728-e811-80ec-005056ba18b6":{"beautified address":"г Москва, проезд Тюменский, д 3-5 к 1","postal index":107370,"region":"Москва","city":"","district":"р-н Богородское","latitude":"55.8120232","longitude":"37.7380847","metro":[]},"279fb0e2-f728-e811-80ec-005056ba18b6":{"beautified address":"г Москва, проезд Тюменский, д 3-5 к 2","postal index":107370,"region":"Москва","city":"","district":"р-н Богородское","latitude":"55.8120232","longitude":"37.7380847","metro":[]},"a6dd96d5-152c-e811-80ec-005056ba18b6":{"beautified address":"Московская обл, г Мытищи, гск N17, к 15","postal index":0,"region":"Московская","city":"Мытищи","district":"","latitude":"55.9105782","longitude":"37.7363579","metro":[]},"7a9f86b3-1434-e811-80ec-005056ba18b6":{"beautified address":"Московская обл, г Одинцово, ул Акуловская, д 2 к 17","postal index":143002,"region":"Московская","city":"","district":"","latitude":"55.659553","longitude":"37.2393021","metro":[{"distance":3.1000000000000001,"line":"Белорусско-Савеловский","name":"Одинцово"}]},"3436354f-d64e-e811-80ed-005056ba18b6":{"beautified address":"г Москва, Московский п, д Картмазово, д 16\/1 к 4","postal index":108811,"region":"Москва","city":"","district":"округ Новомосковский","latitude":"55.6166366","longitude":"37.3992252","metro":[{"distance":1.7,"line":"Сокольническая","name":"Саларьево"},{"distance":1.8,"line":"Сокольническая","name":"Филатов луг"},{"distance":3.2000000000000002,"line":"Сокольническая","name":"Румянцево"}]},"80050113-824f-e811-80ed-005056ba18b6":{"beautified address":"г Москва, ул Паршина, влд 10 к 3","postal index":123103,"region":"Москва","city":"","district":"р-н Хорошево-Мневники","latitude":"55.7902907","longitude":"37.4577513","metro":[{"distance":2.2000000000000002,"line":"Таганско-Краснопресненская","name":"Щукинская"},{"distance":2.2999999999999998,"line":"Таганско-Краснопресненская","name":"Октябрьское поле"},{"distance":2.2999999999999998,"line":"Курско-Рижский","name":"Щукинская"}]},"004b51f5-0359-e811-80ee-005056ba18b6":{"beautified address":"г Москва, ул Петра Алексеева, влд 12А к 2","postal index":121471,"region":"Москва","city":"","district":"р-н Можайский","latitude":"55.7169954","longitude":"37.4307381","metro":[{"distance":1.3,"line":"Большая кольцевая линия","name":"Давыдково"},{"distance":1.3999999999999999,"line":"Белорусско-Савеловский","name":"Рабочий поселок"},{"distance":1.6000000000000001,"line":"Белорусско-Савеловский","name":"Кунцево"}]},"4d4e0c65-545e-e811-80ee-005056ba18b6":{"beautified address":"г Москва, ул Петра Алексеева, влд 12А к 3","postal index":121471,"region":"Москва","city":"","district":"р-н Можайский","latitude":"55.7169954","longitude":"37.4307381","metro":[{"distance":1.3,"line":"Большая кольцевая линия","name":"Давыдково"},{"distance":1.3999999999999999,"line":"Белорусско-Савеловский","name":"Рабочий поселок"},{"distance":1.6000000000000001,"line":"Белорусско-Савеловский","name":"Кунцево"}]},"386ac1e4-fd5f-e811-80ee-005056ba18b6":{"beautified address":"г Москва, Московский п, д Картмазово, д 16\/1 к 3","postal index":108811,"region":"Москва","city":"","district":"округ Новомосковский","latitude":"55.6166366","longitude":"37.3992252","metro":[{"distance":1.7,"line":"Сокольническая","name":"Саларьево"},{"distance":1.8,"line":"Сокольническая","name":"Филатов луг"},{"distance":3.2000000000000002,"line":"Сокольническая","name":"Румянцево"}]},"9ba4af24-f66a-e811-80ee-005056ba18b6":{"beautified address":"г Москва, ул Новочерёмушкинская, влд 17 к 2","postal index":0,"region":"Москва","city":"","district":"р-н Черемушки","latitude":"55.6836068","longitude":"37.5822863","metro":[{"distance":0.69999999999999996,"line":"Калужско-Рижская","name":"Академическая"},{"distance":1.3999999999999999,"line":"Калужско-Рижская","name":"Профсоюзная"},{"distance":1.6000000000000001,"line":"МЦК","name":"Крымская"}]},"17f46a64-f66a-e811-80ee-005056ba18b6":{"beautified address":"г Москва, ул Новочерёмушкинская, влд 17 к 4","postal index":0,"region":"Москва","city":"","district":"р-н Черемушки","latitude":"55.6836068","longitude":"37.5822863","metro":[{"distance":0.69999999999999996,"line":"Калужско-Рижская","name":"Академическая"},{"distance":1.3999999999999999,"line":"Калужско-Рижская","name":"Профсоюзная"},{"distance":1.6000000000000001,"line":"МЦК","name":"Крымская"}]},"66c07345-f76a-e811-80ee-005056ba18b6":{"beautified address":"г Москва, ул Новочерёмушкинская, влд 17 к 3","postal index":0,"region":"Москва","city":"","district":"р-н Черемушки","latitude":"55.6836068","longitude":"37.5822863","metro":[{"distance":0.69999999999999996,"line":"Калужско-Рижская","name":"Академическая"},{"distance":1.3999999999999999,"line":"Калужско-Рижская","name":"Профсоюзная"},{"distance":1.6000000000000001,"line":"МЦК","name":"Крымская"}]},"e2c95b81-6b74-e811-80ef-005056ba18b6":{"beautified address":"г Москва, ул Михайлова, влд 31","postal index":0,"region":"Москва","city":"","district":"р-н Рязанский","latitude":"55.7258005","longitude":"37.7740343","metro":[{"distance":0.90000000000000002,"line":"Некрасовская","name":"Окская"},{"distance":1.3999999999999999,"line":"Некрасовская","name":"Стахановская"},{"distance":1.6000000000000001,"line":"Таганско-Краснопресненская","name":"Рязанский проспект"}]},"80e949d4-5383-e811-80f2-005056ba18b6":{"beautified address":"г Москва, ул Паршина, влд 10 к 1","postal index":123103,"region":"Москва","city":"","district":"р-н Хорошево-Мневники","latitude":"55.7902907","longitude":"37.4577513","metro":[{"distance":2.2000000000000002,"line":"Таганско-Краснопресненская","name":"Щукинская"},{"distance":2.2999999999999998,"line":"Таганско-Краснопресненская","name":"Октябрьское поле"},{"distance":2.2999999999999998,"line":"Курско-Рижский","name":"Щукинская"}]},"3f6bdf03-5583-e811-80f2-005056ba18b6":{"beautified address":"г Москва, ул Паршина, влд 10 к 5","postal index":123103,"region":"Москва","city":"","district":"р-н Хорошево-Мневники","latitude":"55.7902907","longitude":"37.4577513","metro":[{"distance":2.2000000000000002,"line":"Таганско-Краснопресненская","name":"Щукинская"},{"distance":2.2999999999999998,"line":"Таганско-Краснопресненская","name":"Октябрьское поле"},{"distance":2.2999999999999998,"line":"Курско-Рижский","name":"Щукинская"}]},"cf84c934-a485-e811-80f3-005056ba18b6":{"beautified address":"Московская обл, г Клин, д Голиково","postal index":141601,"region":"Московская","city":"","district":"","latitude":"56.3702797","longitude":"36.840319","metro":[]},"c5de596a-a485-e811-80f3-005056ba18b6":{"beautified address":"Иркутская обл, Иркутский р-н, снт Солнечный берег, д 2","postal index":0,"region":"Иркутская","city":"","district":"","latitude":"52.2358193","longitude":"104.3758821","metro":[]},"df863c9e-538e-e811-80f4-005056ba18b6":{"beautified address":"Московская обл, г Пушкино, мкр Новая Деревня, к 15","postal index":141202,"region":"Московская","city":"","district":"","latitude":"56.018621","longitude":"37.8659058","metro":[]},"eddff672-6f8e-e811-80f4-005056ba18b6":{"beautified address":"Московская обл, г Одинцово, ул Маршала Бирюзова, д 15А","postal index":143003,"region":"Московская","city":"","district":"","latitude":"55.682899","longitude":"37.267193","metro":[{"distance":1.5,"line":"Белорусско-Савеловский","name":"Одинцово"},{"distance":3,"line":"Белорусско-Савеловский","name":"Баковка"}]},"2fc23d44-708e-e811-80f4-005056ba18b6":{"beautified address":"Московская обл, г Одинцово, ул Маршала Бирюзова, д 15А","postal index":143003,"region":"Московская","city":"","district":"","latitude":"55.682899","longitude":"37.267193","metro":[{"distance":1.5,"line":"Белорусско-Савеловский","name":"Одинцово"},{"distance":3,"line":"Белорусско-Савеловский","name":"Баковка"}]},"3cb83c8c-708e-e811-80f4-005056ba18b6":{"beautified address":"Московская обл, г Одинцово, ул Маршала Бирюзова, д 15А","postal index":143003,"region":"Московская","city":"","district":"","latitude":"55.682899","longitude":"37.267193","metro":[{"distance":1.5,"line":"Белорусско-Савеловский","name":"Одинцово"},{"distance":3,"line":"Белорусско-Савеловский","name":"Баковка"}]},"4d9a430c-d690-e811-80f5-005056ba18b6":{"beautified address":"г Москва, ш Варшавское, влд 170Е к 2","postal index":117405,"region":"Москва","city":"","district":"р-н Чертаново Южное","latitude":"55.580401","longitude":"37.59321","metro":[{"distance":0.40000000000000002,"line":"Серпуховско-Тимирязевская","name":"Аннино"},{"distance":1,"line":"Бутовская","name":"Лесопарковая"},{"distance":1.5,"line":"Курско-Рижский","name":"Битца"}]},"caddce61-d690-e811-80f5-005056ba18b6":{"beautified address":"г Москва, ш Варшавское, влд 170Е к 3","postal index":117405,"region":"Москва","city":"","district":"р-н Чертаново Южное","latitude":"55.580401","longitude":"37.59321","metro":[{"distance":0.40000000000000002,"line":"Серпуховско-Тимирязевская","name":"Аннино"},{"distance":1,"line":"Бутовская","name":"Лесопарковая"},{"distance":1.5,"line":"Курско-Рижский","name":"Битца"}]},"1b0e220e-dd90-e811-80f5-005056ba18b6":{"beautified address":"г Москва, ш Варшавское, влд 170Е к 5","postal index":117405,"region":"Москва","city":"","district":"р-н Чертаново Южное","latitude":"55.580401","longitude":"37.59321","metro":[{"distance":0.40000000000000002,"line":"Серпуховско-Тимирязевская","name":"Аннино"},{"distance":1,"line":"Бутовская","name":"Лесопарковая"},{"distance":1.5,"line":"Курско-Рижский","name":"Битца"}]},"7387f3c6-5a95-e811-80f8-005056ba18b6":{"beautified address":"г Москва, Московский п, д Картмазово, д 16\/1 к 1","postal index":108811,"region":"Москва","city":"","district":"округ Новомосковский","latitude":"55.6166366","longitude":"37.3992252","metro":[{"distance":1.7,"line":"Сокольническая","name":"Саларьево"},{"distance":1.8,"line":"Сокольническая","name":"Филатов луг"},{"distance":3.2000000000000002,"line":"Сокольническая","name":"Румянцево"}]},"d5c52432-5e95-e811-80f8-005056ba18b6":{"beautified address":"г Москва, Московский п, д Картмазово, д 16\/1 к 2","postal index":108811,"region":"Москва","city":"","district":"округ Новомосковский","latitude":"55.6166366","longitude":"37.3992252","metro":[{"distance":1.7,"line":"Сокольническая","name":"Саларьево"},{"distance":1.8,"line":"Сокольническая","name":"Филатов луг"},{"distance":3.2000000000000002,"line":"Сокольническая","name":"Румянцево"}]},"b7d672b9-5f95-e811-80f8-005056ba18b6":{"beautified address":"г Москва, Московский п, д Картмазово, д 16\/1 к 3","postal index":108811,"region":"Москва","city":"","district":"округ Новомосковский","latitude":"55.6166366","longitude":"37.3992252","metro":[{"distance":1.7,"line":"Сокольническая","name":"Саларьево"},{"distance":1.8,"line":"Сокольническая","name":"Филатов луг"},{"distance":3.2000000000000002,"line":"Сокольническая","name":"Румянцево"}]},"2fd0a8c5-6399-e811-80f9-005056ba18b6":{"beautified address":"г Москва, ш Варшавское, влд 170Е к 5","postal index":117405,"region":"Москва","city":"","district":"р-н Чертаново Южное","latitude":"55.580401","longitude":"37.59321","metro":[{"distance":0.40000000000000002,"line":"Серпуховско-Тимирязевская","name":"Аннино"},{"distance":1,"line":"Бутовская","name":"Лесопарковая"},{"distance":1.5,"line":"Курско-Рижский","name":"Битца"}]},"3eac034f-6499-e811-80f9-005056ba18b6":{"beautified address":"г Москва, ш Варшавское, влд 170Е к 5","postal index":117405,"region":"Москва","city":"","district":"р-н Чертаново Южное","latitude":"55.580401","longitude":"37.59321","metro":[{"distance":0.40000000000000002,"line":"Серпуховско-Тимирязевская","name":"Аннино"},{"distance":1,"line":"Бутовская","name":"Лесопарковая"},{"distance":1.5,"line":"Курско-Рижский","name":"Битца"}]},"28f598fc-6e9c-e811-80f9-005056ba18b6":{"beautified address":"Московская обл, г Мытищи, гск N17, к 15","postal index":0,"region":"Московская","city":"Мытищи","district":"","latitude":"55.9105782","longitude":"37.7363579","metro":[]},"d9af2f75-a99f-e811-80f9-005056ba18b6":{"beautified address":"г Москва, г Щербинка, ул Восточная, д 1 к 1, кв 2","postal index":108851,"region":"Москва","city":"Щербинка","district":"округ Новомосковский","latitude":"55.4921029","longitude":"37.576186","metro":[]},"517ba460-b39f-e811-80f9-005056ba18b6":{"beautified address":"г Москва, г Щербинка, ул Восточная, д 1 к 1, кв 2","postal index":108851,"region":"Москва","city":"Щербинка","district":"округ Новомосковский","latitude":"55.4921029","longitude":"37.576186","metro":[]},"c545d97a-b39f-e811-80f9-005056ba18b6":{"beautified address":"г Москва, г Щербинка, ул Восточная, д 1 к 1, кв 2","postal index":108851,"region":"Москва","city":"Щербинка","district":"округ Новомосковский","latitude":"55.4921029","longitude":"37.576186","metro":[]},"e8671a06-b49f-e811-80f9-005056ba18b6":{"beautified address":"г Москва, г Щербинка, ул Восточная, д 1 к 4, кв 5","postal index":108851,"region":"Москва","city":"Щербинка","district":"округ Новомосковский","latitude":"55.4921029","longitude":"37.576186","metro":[]},"6f035221-b49f-e811-80f9-005056ba18b6":{"beautified address":"г Москва, г Щербинка, ул Восточная, д 1 к 4, кв 5","postal index":108851,"region":"Москва","city":"Щербинка","district":"округ Новомосковский","latitude":"55.4921029","longitude":"37.576186","metro":[]},"739ab24a-b49f-e811-80f9-005056ba18b6":{"beautified address":"г Москва, г Щербинка, ул Восточная, д 1 к 6, кв 7","postal index":108851,"region":"Москва","city":"Щербинка","district":"округ Новомосковский","latitude":"55.4921029","longitude":"37.576186","metro":[]},"b22cd269-b49f-e811-80f9-005056ba18b6":{"beautified address":"г Москва, г Щербинка, ул Восточная, д 1 к 6, кв 7","postal index":108851,"region":"Москва","city":"Щербинка","district":"округ Новомосковский","latitude":"55.4921029","longitude":"37.576186","metro":[]},"70fcf484-b49f-e811-80f9-005056ba18b6":{"beautified address":"г Москва, г Щербинка, ул Восточная, д 1 к 6, кв 7","postal index":108851,"region":"Москва","city":"Щербинка","district":"округ Новомосковский","latitude":"55.4921029","longitude":"37.576186","metro":[]},"3984d35b-88ab-e811-80f9-005056ba18b6":{"beautified address":"Московская обл, г Мытищи, гск N17, к 44","postal index":0,"region":"Московская","city":"Мытищи","district":"","latitude":"55.9105782","longitude":"37.7363579","metro":[]},"99c30405-f8c2-e811-80ff-005056ba18b6":{"beautified address":"Московская обл, г Мытищи","postal index":141000,"region":"Московская","city":"Мытищи","district":"","latitude":"55.9105782","longitude":"37.7363579","metro":[]},"664fc146-f8c2-e811-80ff-005056ba18b6":{"beautified address":"Московская обл, г Мытищи","postal index":141000,"region":"Московская","city":"Мытищи","district":"","latitude":"55.9105782","longitude":"37.7363579","metro":[]},"24ca73b1-01c7-e811-8100-005056ba18b6":{"beautified address":"г Москва, ул Паршина, влд 10 к 6","postal index":123103,"region":"Москва","city":"","district":"р-н Хорошево-Мневники","latitude":"55.7902907","longitude":"37.4577513","metro":[{"distance":2.2000000000000002,"line":"Таганско-Краснопресненская","name":"Щукинская"},{"distance":2.2999999999999998,"line":"Таганско-Краснопресненская","name":"Октябрьское поле"},{"distance":2.2999999999999998,"line":"Курско-Рижский","name":"Щукинская"}]},"3c791665-76d0-e811-8103-005056ba18b6":{"beautified address":"Московская обл, г Мытищи, гск N17, к 19","postal index":0,"region":"Московская","city":"Мытищи","district":"","latitude":"55.9105782","longitude":"37.7363579","metro":[]},"8e72527e-7ad0-e811-8103-005056ba18b6":{"beautified address":"Московская обл, г Мытищи, гск N17, к 20","postal index":0,"region":"Московская","city":"Мытищи","district":"","latitude":"55.9105782","longitude":"37.7363579","metro":[]},"10f70ba9-7ad0-e811-8103-005056ba18b6":{"beautified address":"Московская обл, г Мытищи, гск N17, к 21","postal index":0,"region":"Московская","city":"Мытищи","district":"","latitude":"55.9105782","longitude":"37.7363579","metro":[]},"b4985496-eed1-e811-8103-005056ba18b6":{"beautified address":"г Москва, проезд Тюменский, д 3-5 к 2","postal index":107370,"region":"Москва","city":"","district":"р-н Богородское","latitude":"55.8120232","longitude":"37.7380847","metro":[]},"1434452f-efd1-e811-8103-005056ba18b6":{"beautified address":"г Москва, проезд Тюменский, д 3-5 к 3","postal index":107370,"region":"Москва","city":"","district":"р-н Богородское","latitude":"55.8120232","longitude":"37.7380847","metro":[]},"80dfafa0-efd1-e811-8103-005056ba18b6":{"beautified address":"г Москва, проезд Тюменский, д 3-5 к 4","postal index":107370,"region":"Москва","city":"","district":"р-н Богородское","latitude":"55.8120232","longitude":"37.7380847","metro":[]},"b546e3e2-0fdc-e811-8105-005056ba18b6":{"beautified address":"Московская обл, г Мытищи, гск N17, к 44","postal index":0,"region":"Московская","city":"Мытищи","district":"","latitude":"55.9105782","longitude":"37.7363579","metro":[]},"c9d41076-e4dd-e811-8106-005056ba18b6":{"beautified address":"Московская обл, г Химки, мкр Сходня, ул Железнодорожная, к 1","postal index":0,"region":"Московская","city":"Химки","district":"","latitude":"55.947485","longitude":"37.310681","metro":[]},"978f5a09-9be2-e811-8107-005056ba18b6":{"beautified address":"Московская обл, г Мытищи, гск N17, к 19","postal index":0,"region":"Московская","city":"Мытищи","district":"","latitude":"55.9105782","longitude":"37.7363579","metro":[]},"f8f1b5da-9be2-e811-8107-005056ba18b6":{"beautified address":"Московская обл, г Мытищи, гск N17, к 20","postal index":0,"region":"Московская","city":"Мытищи","district":"","latitude":"55.9105782","longitude":"37.7363579","metro":[]},"2fef1ffc-9be2-e811-8107-005056ba18b6":{"beautified address":"Московская обл, г Мытищи, гск N17, к 21","postal index":0,"region":"Московская","city":"Мытищи","district":"","latitude":"55.9105782","longitude":"37.7363579","metro":[]},"4e3e8b32-9ce2-e811-8107-005056ba18b6":{"beautified address":"Московская обл, г Мытищи, гск N17, к 20","postal index":0,"region":"Московская","city":"Мытищи","district":"","latitude":"55.9105782","longitude":"37.7363579","metro":[]},"46065f83-9ce2-e811-8107-005056ba18b6":{"beautified address":"Московская обл, г Мытищи, гск N17, к 21","postal index":0,"region":"Московская","city":"Мытищи","district":"","latitude":"55.9105782","longitude":"37.7363579","metro":[]},"d5b66e2e-f3eb-e811-8108-005056ba18b6":{"beautified address":"Московская обл, г Химки, мкр Сходня, ул Железнодорожная, к 1","postal index":0,"region":"Московская","city":"Химки","district":"","latitude":"55.947485","longitude":"37.310681","metro":[]},"492d7e5e-55f9-e811-8109-005056ba18b6":{"beautified address":"г Москва, ш Варшавское, влд 170Е к 6","postal index":117405,"region":"Москва","city":"","district":"р-н Чертаново Южное","latitude":"55.580401","longitude":"37.59321","metro":[{"distance":0.40000000000000002,"line":"Серпуховско-Тимирязевская","name":"Аннино"},{"distance":1,"line":"Бутовская","name":"Лесопарковая"},{"distance":1.5,"line":"Курско-Рижский","name":"Битца"}]},"7a5e1b95-55f9-e811-8109-005056ba18b6":{"beautified address":"г Москва, ш Варшавское, влд 170Е к 7","postal index":117405,"region":"Москва","city":"","district":"р-н Чертаново Южное","latitude":"55.580401","longitude":"37.59321","metro":[{"distance":0.40000000000000002,"line":"Серпуховско-Тимирязевская","name":"Аннино"},{"distance":1,"line":"Бутовская","name":"Лесопарковая"},{"distance":1.5,"line":"Курско-Рижский","name":"Битца"}]},"9b0282e9-6f0a-e911-810a-005056ba18b6":{"beautified address":"г Москва, проезд Тюменский, д 3-5 к 2","postal index":107370,"region":"Москва","city":"","district":"р-н Богородское","latitude":"55.8120232","longitude":"37.7380847","metro":[]},"18d24e07-720a-e911-810a-005056ba18b6":{"beautified address":"Московская обл, г Одинцово, ул Маршала Бирюзова, к 1","postal index":0,"region":"Московская","city":"","district":"","latitude":"55.684549","longitude":"37.263079","metro":[]},"7ad42e4b-740a-e911-810a-005056ba18b6":{"beautified address":"Московская обл, г Одинцово, ул Маршала Бирюзова, к 2","postal index":0,"region":"Московская","city":"","district":"","latitude":"55.684549","longitude":"37.263079","metro":[]},"13545fd9-790a-e911-810a-005056ba18b6":{"beautified address":"Московская обл, г Одинцово, ул Маршала Бирюзова, к 3","postal index":0,"region":"Московская","city":"","district":"","latitude":"55.684549","longitude":"37.263079","metro":[]},"ff714e71-ea13-e911-810a-005056ba18b6":{"beautified address":"г Москва, проезд Тюменский, д 3-5 к 11","postal index":107370,"region":"Москва","city":"","district":"р-н Богородское","latitude":"55.8120232","longitude":"37.7380847","metro":[]},"19bc0f63-0e14-e911-810a-005056ba18b6":{"beautified address":"Московская обл, г Одинцово, ул Западная, к 1","postal index":143002,"region":"Московская","city":"","district":"","latitude":"55.671402","longitude":"37.240154","metro":[]},"8612189e-1014-e911-810a-005056ba18b6":{"beautified address":"Московская обл, г Одинцово, ул Западная, к 2","postal index":143002,"region":"Московская","city":"","district":"","latitude":"55.671402","longitude":"37.240154","metro":[]},"118ecec6-1014-e911-810a-005056ba18b6":{"beautified address":"Московская обл, г Одинцово, ул Западная, к 7","postal index":143002,"region":"Московская","city":"","district":"","latitude":"55.671402","longitude":"37.240154","metro":[]},"5adabbc4-a314-e911-810a-005056ba18b6":{"beautified address":"г Москва, проезд Тюменский, д 3-5 к 5","postal index":107370,"region":"Москва","city":"","district":"р-н Богородское","latitude":"55.8120232","longitude":"37.7380847","metro":[]},"8b9290c7-a414-e911-810a-005056ba18b6":{"beautified address":"г Москва, проезд Тюменский, д 3-5 к 6","postal index":107370,"region":"Москва","city":"","district":"р-н Богородское","latitude":"55.8120232","longitude":"37.7380847","metro":[]},"012805e7-a414-e911-810a-005056ba18b6":{"beautified address":"г Москва, проезд Тюменский, д 3-5 к 7","postal index":107370,"region":"Москва","city":"","district":"р-н Богородское","latitude":"55.8120232","longitude":"37.7380847","metro":[]},"b8839e0f-a514-e911-810a-005056ba18b6":{"beautified address":"г Москва, проезд Тюменский, д 3-5 к 8","postal index":107370,"region":"Москва","city":"","district":"р-н Богородское","latitude":"55.8120232","longitude":"37.7380847","metro":[]},"138b6c2a-a514-e911-810a-005056ba18b6":{"beautified address":"г Москва, проезд Тюменский, д 3-5 к 9","postal index":107370,"region":"Москва","city":"","district":"р-н Богородское","latitude":"55.8120232","longitude":"37.7380847","metro":[]},"fe302450-a514-e911-810a-005056ba18b6":{"beautified address":"г Москва, проезд Тюменский, д 3-5 к 10","postal index":107370,"region":"Москва","city":"","district":"р-н Богородское","latitude":"55.8120232","longitude":"37.7380847","metro":[]},"6c3dd6dd-9815-e911-810a-005056ba18b6":{"beautified address":"г Москва, ул Петра Алексеева, влд 12 к 1","postal index":121471,"region":"Москва","city":"","district":"р-н Можайский","latitude":"55.7169954","longitude":"37.4307381","metro":[{"distance":1.3,"line":"Большая кольцевая линия","name":"Давыдково"},{"distance":1.3999999999999999,"line":"Белорусско-Савеловский","name":"Рабочий поселок"},{"distance":1.6000000000000001,"line":"Белорусско-Савеловский","name":"Кунцево"}]},"29c42abe-9915-e911-810a-005056ba18b6":{"beautified address":"г Москва, ул Петра Алексеева, влд 12 к 1","postal index":121471,"region":"Москва","city":"","district":"р-н Можайский","latitude":"55.7169954","longitude":"37.4307381","metro":[{"distance":1.3,"line":"Большая кольцевая линия","name":"Давыдково"},{"distance":1.3999999999999999,"line":"Белорусско-Савеловский","name":"Рабочий поселок"},{"distance":1.6000000000000001,"line":"Белорусско-Савеловский","name":"Кунцево"}]},"9d3ad4ae-a215-e911-810a-005056ba18b6":{"beautified address":"Московская обл, г Пушкино, мкр Новая Деревня, д 18","postal index":141202,"region":"Московская","city":"","district":"","latitude":"56.018621","longitude":"37.8659058","metro":[]},"8c3b9e06-a315-e911-810a-005056ba18b6":{"beautified address":"Московская обл, г Пушкино, мкр Новая Деревня, д 17","postal index":141202,"region":"Московская","city":"","district":"","latitude":"56.018621","longitude":"37.8659058","metro":[]},"01216c11-062a-e911-810c-005056ba18b6":{"beautified address":"Московская обл, г Мытищи, гск N17, к 47","postal index":0,"region":"Московская","city":"Мытищи","district":"","latitude":"55.9105782","longitude":"37.7363579","metro":[]},"7de6e909-082a-e911-810c-005056ba18b6":{"beautified address":"Московская обл, г Мытищи, гск N17, к 68","postal index":0,"region":"Московская","city":"Мытищи","district":"","latitude":"55.9105782","longitude":"37.7363579","metro":[]},"5df891ca-0b2a-e911-810c-005056ba18b6":{"beautified address":"Московская обл, г Мытищи, гск N17, к 14","postal index":0,"region":"Московская","city":"Мытищи","district":"","latitude":"55.9105782","longitude":"37.7363579","metro":[]},"b41b1612-152a-e911-810c-005056ba18b6":{"beautified address":"Московская обл, г Мытищи, гск N17, к 47","postal index":0,"region":"Московская","city":"Мытищи","district":"","latitude":"55.9105782","longitude":"37.7363579","metro":[]},"dfa6a4b7-c22a-e911-810c-005056ba18b6":{"beautified address":"Московская обл, г Мытищи, гск N17, к 69","postal index":0,"region":"Московская","city":"Мытищи","district":"","latitude":"55.9105782","longitude":"37.7363579","metro":[]},"d756c14f-c92a-e911-810c-005056ba18b6":{"beautified address":"Московская обл, г Мытищи, гск N17, к 14","postal index":0,"region":"Московская","city":"Мытищи","district":"","latitude":"55.9105782","longitude":"37.7363579","metro":[]},"8e4ab3d0-ca2a-e911-810c-005056ba18b6":{"beautified address":"Московская обл, г Мытищи, гск N17, к 69","postal index":0,"region":"Московская","city":"Мытищи","district":"","latitude":"55.9105782","longitude":"37.7363579","metro":[]},"e04731f9-e62a-e911-810c-005056ba18b6":{"beautified address":"Московская обл, г Мытищи, гск N17, к 70","postal index":0,"region":"Московская","city":"Мытищи","district":"","latitude":"55.9105782","longitude":"37.7363579","metro":[]},"351b2ccd-e72a-e911-810c-005056ba18b6":{"beautified address":"Московская обл, г Мытищи, гск N17, к 70","postal index":0,"region":"Московская","city":"Мытищи","district":"","latitude":"55.9105782","longitude":"37.7363579","metro":[]},"fd6f2ac3-f82a-e911-810c-005056ba18b6":{"beautified address":"Московская обл, г Мытищи, гск N17, к 68","postal index":0,"region":"Московская","city":"Мытищи","district":"","latitude":"55.9105782","longitude":"37.7363579","metro":[]},"dd71d558-2830-e911-810c-005056ba18b6":{"beautified address":"г Москва, проезд Тюменский, д 3-5 к 9","postal index":107370,"region":"Москва","city":"","district":"р-н Богородское","latitude":"55.8120232","longitude":"37.7380847","metro":[]},"bcb4c75b-2930-e911-810c-005056ba18b6":{"beautified address":"г Москва, проезд Тюменский, д 3-5 к 8","postal index":107370,"region":"Москва","city":"","district":"р-н Богородское","latitude":"55.8120232","longitude":"37.7380847","metro":[]},"002158e0-6f3a-e911-810e-005056ba18b6":{"beautified address":"Московская обл, г Одинцово, ул Маршала Бирюзова, д 15А","postal index":143003,"region":"Московская","city":"","district":"","latitude":"55.682899","longitude":"37.267193","metro":[{"distance":1.5,"line":"Белорусско-Савеловский","name":"Одинцово"},{"distance":3,"line":"Белорусско-Савеловский","name":"Баковка"}]},"bce5a1dd-173f-e911-810f-005056ba18b6":{"beautified address":"Московская обл, г Одинцово, ул Маршала Бирюзова, д 15А","postal index":143003,"region":"Московская","city":"","district":"","latitude":"55.682899","longitude":"37.267193","metro":[{"distance":1.5,"line":"Белорусско-Савеловский","name":"Одинцово"},{"distance":3,"line":"Белорусско-Савеловский","name":"Баковка"}]},"7cd05b00-193f-e911-810f-005056ba18b6":{"beautified address":"Московская обл, г Одинцово, ул Маршала Бирюзова, д 15А","postal index":143003,"region":"Московская","city":"","district":"","latitude":"55.682899","longitude":"37.267193","metro":[{"distance":1.5,"line":"Белорусско-Савеловский","name":"Одинцово"},{"distance":3,"line":"Белорусско-Савеловский","name":"Баковка"}]},"c131b9c9-f33f-e911-810f-005056ba18b6":{"beautified address":"Московская обл, г Одинцово, ул Маршала Бирюзова, д 4 к 5","postal index":143003,"region":"Московская","city":"","district":"","latitude":"55.684929","longitude":"37.258776","metro":[{"distance":2,"line":"Белорусско-Савеловский","name":"Одинцово"},{"distance":3.6000000000000001,"line":"Белорусско-Савеловский","name":"Баковка"}]},"8d8d54e3-f33f-e911-810f-005056ba18b6":{"beautified address":"Московская обл, г Одинцово, ул Маршала Бирюзова, д 4 к 5","postal index":143003,"region":"Московская","city":"","district":"","latitude":"55.684929","longitude":"37.258776","metro":[{"distance":2,"line":"Белорусско-Савеловский","name":"Одинцово"},{"distance":3.6000000000000001,"line":"Белорусско-Савеловский","name":"Баковка"}]},"6400ee01-db4b-e911-8110-005056ba18b6":{"beautified address":"Московская обл, г Одинцово, ул Маршала Бирюзова, к 1","postal index":0,"region":"Московская","city":"","district":"","latitude":"55.684549","longitude":"37.263079","metro":[]},"50b2ef7d-db4b-e911-8110-005056ba18b6":{"beautified address":"Московская обл, г Одинцово, ул Маршала Бирюзова, к 3","postal index":0,"region":"Московская","city":"","district":"","latitude":"55.684549","longitude":"37.263079","metro":[]},"f4feecd0-db4b-e911-8110-005056ba18b6":{"beautified address":"Московская обл, г Одинцово, ул Маршала Бирюзова, д 4 к 5","postal index":143003,"region":"Московская","city":"","district":"","latitude":"55.684929","longitude":"37.258776","metro":[{"distance":2,"line":"Белорусско-Савеловский","name":"Одинцово"},{"distance":3.6000000000000001,"line":"Белорусско-Савеловский","name":"Баковка"}]},"2c4df722-dc4b-e911-8110-005056ba18b6":{"beautified address":"Московская обл, г Одинцово, ул Маршала Бирюзова, д 4 к 5","postal index":143003,"region":"Московская","city":"","district":"","latitude":"55.684929","longitude":"37.258776","metro":[{"distance":2,"line":"Белорусско-Савеловский","name":"Одинцово"},{"distance":3.6000000000000001,"line":"Белорусско-Савеловский","name":"Баковка"}]},"a5c7d1b5-d14f-e911-8112-005056ba18b6":{"beautified address":"г Москва, ул Паршина, влд 10 к 3","postal index":123103,"region":"Москва","city":"","district":"р-н Хорошево-Мневники","latitude":"55.7902907","longitude":"37.4577513","metro":[{"distance":2.2000000000000002,"line":"Таганско-Краснопресненская","name":"Щукинская"},{"distance":2.2999999999999998,"line":"Таганско-Краснопресненская","name":"Октябрьское поле"},{"distance":2.2999999999999998,"line":"Курско-Рижский","name":"Щукинская"}]},"3845ef86-1c52-e911-8113-005056ba18b6":{"beautified address":"Московская обл, г Одинцово, ул Акуловская, д 2 к 17","postal index":143002,"region":"Московская","city":"","district":"","latitude":"55.659553","longitude":"37.2393021","metro":[{"distance":3.1000000000000001,"line":"Белорусско-Савеловский","name":"Одинцово"}]},"eb2e8dac-5054-e911-8113-005056ba18b6":{"beautified address":"Московская обл, г Одинцово, ул Западная, к 1","postal index":143002,"region":"Московская","city":"","district":"","latitude":"55.671402","longitude":"37.240154","metro":[]},"3b43f8f1-5054-e911-8113-005056ba18b6":{"beautified address":"Московская обл, г Одинцово, ул Западная, к 2","postal index":143002,"region":"Московская","city":"","district":"","latitude":"55.671402","longitude":"37.240154","metro":[]},"e3554d2e-5154-e911-8113-005056ba18b6":{"beautified address":"Московская обл, г Одинцово, ул Западная, к 7","postal index":143002,"region":"Московская","city":"","district":"","latitude":"55.671402","longitude":"37.240154","metro":[]},"40398335-065a-e911-8113-005056ba18b6":{"beautified address":"г Москва, ул Вавилова, влд 69А","postal index":0,"region":"Москва","city":"","district":"р-н Донской","latitude":"55.681047","longitude":"37.551088","metro":[{"distance":0.80000000000000004,"line":"Калужско-Рижская","name":"Профсоюзная"},{"distance":1.2,"line":"Калужско-Рижская","name":"Новые Черемушки"},{"distance":1.5,"line":"Калужско-Рижская","name":"Академическая"}]},"b0fd806f-2888-e911-811c-005056ba18b6":{"beautified address":"Московская обл, г Одинцово, ул Западная, к 4","postal index":143002,"region":"Московская","city":"","district":"","latitude":"55.671402","longitude":"37.240154","metro":[]},"70f93e8b-2988-e911-811c-005056ba18b6":{"beautified address":"Московская обл, г Одинцово, ул Западная, к 3","postal index":143002,"region":"Московская","city":"","district":"","latitude":"55.671402","longitude":"37.240154","metro":[]},"fcf85b3f-c19c-e911-811c-005056ba18b6":{"beautified address":"Московская обл, г Мытищи, гск N17, к 17","postal index":0,"region":"Московская","city":"Мытищи","district":"","latitude":"55.9105782","longitude":"37.7363579","metro":[]},"8f56bfec-cc9c-e911-811c-005056ba18b6":{"beautified address":"Московская обл, г Мытищи, гск N17, к 17","postal index":0,"region":"Московская","city":"Мытищи","district":"","latitude":"55.9105782","longitude":"37.7363579","metro":[]},"34b55663-d29c-e911-811c-005056ba18b6":{"beautified address":"Московская обл, г Одинцово, ул Западная, к 8","postal index":143002,"region":"Московская","city":"","district":"","latitude":"55.671402","longitude":"37.240154","metro":[]},"78b19f5e-d39c-e911-811c-005056ba18b6":{"beautified address":"Московская обл, г Одинцово, ул Западная, к 9","postal index":143002,"region":"Московская","city":"","district":"","latitude":"55.671402","longitude":"37.240154","metro":[]},"cadffbac-0ca7-e911-811d-005056ba18b6":{"beautified address":"Московская обл, г Мытищи, гск N17, к 16","postal index":0,"region":"Московская","city":"Мытищи","district":"","latitude":"55.9105782","longitude":"37.7363579","metro":[]},"48ca4c25-1fa7-e911-811d-005056ba18b6":{"beautified address":"Московская обл, г Мытищи, гск N17, к 16","postal index":0,"region":"Московская","city":"Мытищи","district":"","latitude":"55.9105782","longitude":"37.7363579","metro":[]},"7903e21d-25a7-e911-811d-005056ba18b6":{"beautified address":"Московская обл, г Мытищи, гск N17, к 45","postal index":0,"region":"Московская","city":"Мытищи","district":"","latitude":"55.9105782","longitude":"37.7363579","metro":[]},"510ec2e8-28a7-e911-811d-005056ba18b6":{"beautified address":"Московская обл, г Мытищи, гск N17, к 45","postal index":0,"region":"Московская","city":"Мытищи","district":"","latitude":"55.9105782","longitude":"37.7363579","metro":[]},"798c9de8-96a7-e911-811d-005056ba18b6":{"beautified address":"Московская обл, г Мытищи, гск N17, к 46","postal index":0,"region":"Московская","city":"Мытищи","district":"","latitude":"55.9105782","longitude":"37.7363579","metro":[]},"d68e8d54-9ba7-e911-811d-005056ba18b6":{"beautified address":"Московская обл, г Мытищи, гск N17, к 46","postal index":0,"region":"Московская","city":"Мытищи","district":"","latitude":"55.9105782","longitude":"37.7363579","metro":[]},"19894b71-1ac3-e911-811f-005056ba18b6":{"beautified address":"Московская обл, г Пушкино, мкр Новая Деревня, д 19","postal index":141202,"region":"Московская","city":"","district":"","latitude":"56.018621","longitude":"37.8659058","metro":[]},"e0852048-1bc3-e911-811f-005056ba18b6":{"beautified address":"Московская обл, г Пушкино, мкр Новая Деревня, д 22","postal index":141202,"region":"Московская","city":"","district":"","latitude":"56.018621","longitude":"37.8659058","metro":[]},"95a1fd2f-1cc3-e911-811f-005056ba18b6":{"beautified address":"Московская обл, г Пушкино, мкр Новая Деревня, д 24","postal index":141202,"region":"Московская","city":"","district":"","latitude":"56.018621","longitude":"37.8659058","metro":[]},"470a4e7a-1cc3-e911-811f-005056ba18b6":{"beautified address":"Московская обл, г Пушкино, мкр Новая Деревня, д 25","postal index":141202,"region":"Московская","city":"","district":"","latitude":"56.018621","longitude":"37.8659058","metro":[]},"268e61d3-1cc3-e911-811f-005056ba18b6":{"beautified address":"Московская обл, г Пушкино, мкр Новая Деревня, д 26","postal index":141202,"region":"Московская","city":"","district":"","latitude":"56.018621","longitude":"37.8659058","metro":[]},"ba54f428-46c3-e911-811f-005056ba18b6":{"beautified address":"Московская обл, г Пушкино, мкр Новая Деревня, д 24","postal index":141202,"region":"Московская","city":"","district":"","latitude":"56.018621","longitude":"37.8659058","metro":[]},"379d0423-df87-ec11-813e-005056ba18b6":{"beautified address":"Московская обл, г Пушкино, мкр Новая Деревня, к 20","postal index":141202,"region":"Московская","city":"","district":"","latitude":"56.018621","longitude":"37.8659058","metro":[]},"bb788e57-5b8e-ec11-813e-005056ba18b6":{"beautified address":"Московская обл, г Видное, п Развилка, д 207Ю к 1","postal index":142717,"region":"Московская","city":"Видное","district":"","latitude":"55.5910584","longitude":"37.7528578","metro":[]},"c5b43973-5c8e-ec11-813e-005056ba18b6":{"beautified address":"Московская обл, г Видное, п Развилка, д 207Ю к 2","postal index":142717,"region":"Московская","city":"Видное","district":"","latitude":"55.5910584","longitude":"37.7528578","metro":[]},"80bfdbe8-3fab-ec11-813e-005056ba18b6":{"beautified address":"Московская обл, г Пушкино, мкр Новая Деревня, к 27","postal index":141202,"region":"Московская","city":"","district":"","latitude":"56.018621","longitude":"37.8659058","metro":[]},"677c71c0-5fab-ec11-813e-005056ba18b6":{"beautified address":"Московская обл, г Пушкино, мкр Новая Деревня, к 28","postal index":141202,"region":"Московская","city":"","district":"","latitude":"56.018621","longitude":"37.8659058","metro":[]},"ae7eb5cf-f4f9-ec11-813f-005056ba18b6":{"beautified address":"Московская обл, г Пушкино, мкр Новая Деревня, к 27","postal index":141202,"region":"Московская","city":"","district":"","latitude":"56.018621","longitude":"37.8659058","metro":[]},"eacc6c70-f22a-e511-80c1-00155d110c02":{"beautified address":"г Москва, ул Санникова, д 7","postal index":127641,"region":"Москва","city":"","district":"р-н Отрадное","latitude":"55.8606362","longitude":"37.5965573","metro":[{"distance":0.69999999999999996,"line":"Серпуховско-Тимирязевская","name":"Отрадное"},{"distance":1.3999999999999999,"line":"Серпуховско-Тимирязевская","name":"Владыкино"},{"distance":1.5,"line":"МЦК","name":"Владыкино"}]},"ee18c90b-fc2a-e511-80c1-00155d110c02":{"beautified address":"Московская обл, г Дмитров, д Садовая, д 7, кв 2","postal index":141802,"region":"Московская","city":"","district":"","latitude":"56.4097167","longitude":"37.1229634","metro":[]},"f6ab12fc-c94b-e511-80c2-00155d110c02":{"beautified address":"г Москва, ул Мира, д 38","postal index":108809,"region":"Москва","city":"","district":"р-н Внуково","latitude":"55.7540471","longitude":"37.620405","metro":[]}}